% program   : RTKPOST ver.2.4.3 b34
% inp file  : C:\Users\adria\Desktop\projekt3\WUTR00POL_R_20241390000_01D_30S_MO.rnx
% inp file  : C:\Users\adria\Desktop\projekt3\asg\CBKA1390.24o
% inp file  : C:\Users\adria\Desktop\projekt3\asg\CBKA1390.24n
% obs start : 2024/05/18 00:00:00.0 GPST (week2314 518400.0s)
% obs end   : 2024/05/18 23:59:30.0 GPST (week2314 604770.0s)
% pos mode  : Kinematic
% freqs     : L1+2
% solution  : Forward
% elev mask : 10.0 deg
% dynamics  : off
% tidecorr  : off
% ionos opt : OFF
% tropo opt : OFF
% ephemeris : Broadcast
% navi sys  : GPS
% amb res   : Continuous
% val thres : 2.5
% antenna1  :                       ( 0.0000  0.0000  0.1010)
% antenna2  :                       ( 0.0000  0.0000  0.0850)
% ref pos   :  3654410.0348   1407752.4780   5017576.9176
%
% (x/y/z-ecef=WGS84,Q=1:fix,2:float,3:sbas,4:dgps,5:single,6:ppp,ns=# of satellites)
%  GPST                      x-ecef(m)      y-ecef(m)      z-ecef(m)   Q  ns   sdx(m)   sdy(m)   sdz(m)  sdxy(m)  sdyz(m)  sdzx(m) age(s)  ratio
2024/05/18 00:00:00.000   3655333.8540   1403901.0579   5018038.0559   1   9   0.0097   0.0062   0.0122   0.0048   0.0043   0.0084   0.00    2.7
2024/05/18 00:00:30.000   3655333.8561   1403901.0579   5018038.0535   1   9   0.0097   0.0062   0.0122   0.0048   0.0043   0.0083   0.00    3.3
2024/05/18 00:01:00.000   3655333.8636   1403901.0585   5018038.0546   1   9   0.0097   0.0062   0.0122   0.0047   0.0042   0.0083   0.00    5.9
2024/05/18 00:01:30.000   3655333.8602   1403901.0563   5018038.0537   1   9   0.0097   0.0063   0.0122   0.0047   0.0043   0.0083   0.00    7.0
2024/05/18 00:02:00.000   3655333.8707   1403901.0648   5018038.0517   1   9   0.0097   0.0063   0.0122   0.0047   0.0042   0.0083   0.00    8.9
2024/05/18 00:02:30.000   3655333.8625   1403901.0609   5018038.0507   1   9   0.0097   0.0062   0.0122   0.0048   0.0042   0.0083   0.00    9.3
2024/05/18 00:03:00.000   3655333.8639   1403901.0600   5018038.0521   1   9   0.0097   0.0063   0.0122   0.0048   0.0042   0.0082   0.00   11.9
2024/05/18 00:03:30.000   3655333.8609   1403901.0554   5018038.0561   1   9   0.0097   0.0062   0.0122   0.0048   0.0042   0.0082   0.00   11.4
2024/05/18 00:04:00.000   3655333.8581   1403901.0546   5018038.0483   1   9   0.0097   0.0063   0.0122   0.0048   0.0042   0.0082   0.00    9.2
2024/05/18 00:04:30.000   3655333.8654   1403901.0567   5018038.0471   1   9   0.0098   0.0063   0.0122   0.0047   0.0041   0.0082   0.00    8.8
2024/05/18 00:05:00.000   3655333.8726   1403901.0594   5018038.0563   1   9   0.0097   0.0064   0.0122   0.0049   0.0041   0.0081   0.00    8.6
2024/05/18 00:05:30.000   3655333.8736   1403901.0595   5018038.0587   1   9   0.0097   0.0063   0.0122   0.0049   0.0040   0.0081   0.00    9.1
2024/05/18 00:06:00.000   3655333.8676   1403901.0573   5018038.0617   1   9   0.0097   0.0064   0.0122   0.0048   0.0041   0.0081   0.00    9.3
2024/05/18 00:06:30.000   3655333.8622   1403901.0573   5018038.0558   1   9   0.0098   0.0064   0.0122   0.0048   0.0040   0.0081   0.00    9.6
2024/05/18 00:07:00.000   3655333.8663   1403901.0564   5018038.0650   1   9   0.0098   0.0064   0.0122   0.0049   0.0041   0.0080   0.00    9.4
2024/05/18 00:07:30.000   3655333.8734   1403901.0659   5018038.0650   1   9   0.0098   0.0063   0.0122   0.0049   0.0041   0.0080   0.00    9.1
2024/05/18 00:08:00.000   3655333.8633   1403901.0601   5018038.0571   1   9   0.0098   0.0064   0.0122   0.0049   0.0042   0.0080   0.00    9.1
2024/05/18 00:08:30.000   3655333.8701   1403901.0627   5018038.0588   1   9   0.0098   0.0064   0.0122   0.0049   0.0041   0.0080   0.00    9.4
2024/05/18 00:09:00.000   3655333.8721   1403901.0611   5018038.0577   1   9   0.0098   0.0064   0.0122   0.0049   0.0041   0.0079   0.00    9.8
2024/05/18 00:09:30.000   3655333.8808   1403901.0626   5018038.0639   1   9   0.0099   0.0065   0.0122   0.0048   0.0040   0.0080   0.00    9.8
2024/05/18 00:10:00.000   3655333.8747   1403901.0624   5018038.0601   1   9   0.0099   0.0064   0.0123   0.0050   0.0041   0.0079   0.00   10.0
2024/05/18 00:10:30.000   3655333.8768   1403901.0622   5018038.0610   1   9   0.0099   0.0065   0.0123   0.0049   0.0041   0.0079   0.00   10.1
2024/05/18 00:11:00.000   3655333.8760   1403901.0671   5018038.0535   1   9   0.0099   0.0064   0.0123   0.0050   0.0041   0.0079   0.00   10.5
2024/05/18 00:11:30.000   3655333.8662   1403901.0644   5018038.0514   1   9   0.0099   0.0065   0.0123   0.0050   0.0040   0.0079   0.00   11.1
2024/05/18 00:12:00.000   3655333.8671   1403901.0619   5018038.0532   1   9   0.0100   0.0066   0.0123   0.0050   0.0040   0.0078   0.00   11.2
2024/05/18 00:12:30.000   3655333.8762   1403901.0627   5018038.0582   1   9   0.0100   0.0066   0.0123   0.0050   0.0040   0.0078   0.00   10.7
2024/05/18 00:13:00.000   3655333.8742   1403901.0590   5018038.0541   1   9   0.0100   0.0065   0.0123   0.0050   0.0041   0.0078   0.00   10.2
2024/05/18 00:13:30.000   3655333.8679   1403901.0651   5018038.0471   1   9   0.0100   0.0064   0.0123   0.0051   0.0040   0.0078   0.00   10.4
2024/05/18 00:14:00.000   3655333.7704   1403901.1438   5018038.0405   2  10   0.0830   0.0640   0.0302  -0.0388   0.0282   0.0124   0.00    2.1
2024/05/18 00:14:30.000   3655333.8565   1403901.0597   5018038.0485   1  10   0.0099   0.0065   0.0114   0.0053   0.0043   0.0071   0.00    3.5
2024/05/18 00:15:00.000   3655333.8694   1403901.0594   5018038.0523   1  10   0.0099   0.0064   0.0113   0.0053   0.0044   0.0071   0.00    4.9
2024/05/18 00:15:30.000   3655333.8805   1403901.0639   5018038.0547   1  10   0.0100   0.0066   0.0113   0.0053   0.0042   0.0071   0.00    6.3
2024/05/18 00:16:00.000   3655333.8845   1403901.0605   5018038.0624   1  10   0.0099   0.0066   0.0114   0.0053   0.0043   0.0070   0.00    7.7
2024/05/18 00:16:30.000   3655333.8739   1403901.0560   5018038.0585   1  10   0.0100   0.0067   0.0113   0.0054   0.0043   0.0070   0.00    9.0
2024/05/18 00:17:00.000   3655333.8771   1403901.0623   5018038.0636   1   9   0.0102   0.0066   0.0124   0.0052   0.0040   0.0076   0.00   15.0
2024/05/18 00:17:30.000   3655333.8699   1403901.0584   5018038.0627   1  10   0.0100   0.0068   0.0113   0.0053   0.0042   0.0069   0.00   10.1
2024/05/18 00:18:00.000   3655333.8191   1403901.1252   5018038.0556   2  11   0.0644   0.0507   0.0227  -0.0356   0.0217   0.0061   0.00    2.0
2024/05/18 00:18:30.000   3655333.8736   1403901.0620   5018038.0569   1  11   0.0093   0.0062   0.0112   0.0045   0.0039   0.0064   0.00    3.2
2024/05/18 00:19:00.000   3655333.8592   1403901.0542   5018038.0543   1  11   0.0093   0.0063   0.0112   0.0044   0.0038   0.0064   0.00    4.4
2024/05/18 00:19:30.000   3655333.8715   1403901.0591   5018038.0572   1  10   0.0093   0.0064   0.0122   0.0045   0.0043   0.0065   0.00    5.4
2024/05/18 00:20:00.000   3655333.8600   1403901.0531   5018038.0547   1  10   0.0093   0.0065   0.0121   0.0045   0.0043   0.0065   0.00    6.3
2024/05/18 00:20:30.000   3655333.8721   1403901.0584   5018038.0520   1  10   0.0093   0.0063   0.0121   0.0046   0.0043   0.0064   0.00    8.0
2024/05/18 00:21:00.000   3655333.8499   1403901.1164   5018038.0617   2  10   0.0558   0.0452   0.0200  -0.0338   0.0183   0.0058   0.00    2.3
2024/05/18 00:21:30.000   3655333.8733   1403901.0591   5018038.0560   1  10   0.0093   0.0063   0.0120   0.0045   0.0043   0.0063   0.00    3.5
2024/05/18 00:22:00.000   3655333.8606   1403901.1213   5018038.0460   2  10   0.0535   0.0443   0.0192  -0.0335   0.0175   0.0050   0.00    2.0
2024/05/18 00:22:30.000   3655333.8660   1403901.0563   5018038.0476   1  10   0.0094   0.0064   0.0120   0.0044   0.0043   0.0062   0.00    3.3
2024/05/18 00:23:00.000   3655333.8797   1403901.0594   5018038.0599   1  10   0.0094   0.0064   0.0120   0.0046   0.0043   0.0062   0.00    3.9
2024/05/18 00:23:30.000   3655333.8435   1403901.1233   5018038.0493   2  10   0.0503   0.0431   0.0182  -0.0330   0.0164   0.0038   0.00    2.1
2024/05/18 00:24:00.000   3655333.8670   1403901.0551   5018038.0513   1  10   0.0103   0.0061   0.0115   0.0046   0.0035   0.0060   0.00    3.4
2024/05/18 00:24:30.000   3655333.8711   1403901.0582   5018038.0545   1  10   0.0103   0.0061   0.0115   0.0045   0.0034   0.0060   0.00    4.6
2024/05/18 00:25:00.000   3655333.8654   1403901.0598   5018038.0568   1  10   0.0103   0.0060   0.0115   0.0047   0.0035   0.0060   0.00    5.9
2024/05/18 00:25:30.000   3655333.8788   1403901.0650   5018038.0601   1  10   0.0102   0.0060   0.0114   0.0046   0.0035   0.0059   0.00    6.9
2024/05/18 00:26:00.000   3655333.8748   1403901.0632   5018038.0611   1  10   0.0102   0.0061   0.0113   0.0046   0.0035   0.0058   0.00    8.1
2024/05/18 00:26:30.000   3655333.8719   1403901.0622   5018038.0566   1  10   0.0103   0.0061   0.0114   0.0045   0.0033   0.0058   0.00    9.2
2024/05/18 00:27:00.000   3655333.8710   1403901.0610   5018038.0585   1  10   0.0102   0.0061   0.0113   0.0045   0.0032   0.0057   0.00   10.4
2024/05/18 00:27:30.000   3655333.8651   1403901.0588   5018038.0584   1  10   0.0103   0.0061   0.0113   0.0045   0.0034   0.0057   0.00   11.5
2024/05/18 00:28:00.000   3655333.8712   1403901.0612   5018038.0692   1  10   0.0103   0.0060   0.0113   0.0046   0.0033   0.0056   0.00   12.0
2024/05/18 00:28:30.000   3655333.8700   1403901.0581   5018038.0652   1  10   0.0103   0.0061   0.0113   0.0045   0.0032   0.0056   0.00   12.9
2024/05/18 00:29:00.000   3655333.8751   1403901.0607   5018038.0650   1  10   0.0103   0.0061   0.0113   0.0045   0.0032   0.0054   0.00   13.9
2024/05/18 00:29:30.000   3655333.8775   1403901.0647   5018038.0607   1  10   0.0102   0.0060   0.0112   0.0045   0.0032   0.0054   0.00   14.5
2024/05/18 00:30:00.000   3655333.8642   1403901.0598   5018038.0555   1  10   0.0102   0.0060   0.0112   0.0045   0.0032   0.0053   0.00   15.7
2024/05/18 00:30:30.000   3655333.8628   1403901.0606   5018038.0562   1  10   0.0103   0.0059   0.0111   0.0045   0.0032   0.0053   0.00   16.7
2024/05/18 00:31:00.000   3655333.8655   1403901.0617   5018038.0544   1  10   0.0103   0.0061   0.0112   0.0043   0.0030   0.0053   0.00   17.6
2024/05/18 00:31:30.000   3655333.8659   1403901.0614   5018038.0514   1  10   0.0103   0.0059   0.0111   0.0045   0.0031   0.0052   0.00   18.7
2024/05/18 00:32:00.000   3655333.8707   1403901.0619   5018038.0484   1  10   0.0103   0.0060   0.0111   0.0044   0.0031   0.0051   0.00   19.7
2024/05/18 00:32:30.000   3655333.8690   1403901.0602   5018038.0520   1  10   0.0103   0.0061   0.0111   0.0043   0.0030   0.0051   0.00   20.6
2024/05/18 00:33:00.000   3655333.8619   1403901.0572   5018038.0518   1  10   0.0103   0.0060   0.0110   0.0044   0.0030   0.0050   0.00   20.9
2024/05/18 00:33:30.000   3655333.8623   1403901.0546   5018038.0527   1  10   0.0102   0.0058   0.0110   0.0045   0.0030   0.0049   0.00   22.5
2024/05/18 00:34:00.000   3655333.8608   1403901.0562   5018038.0485   1  10   0.0103   0.0059   0.0110   0.0044   0.0031   0.0049   0.00   23.6
2024/05/18 00:34:30.000   3655333.8719   1403901.0603   5018038.0537   1  10   0.0103   0.0060   0.0110   0.0044   0.0028   0.0049   0.00   24.1
2024/05/18 00:35:00.000   3655333.8754   1403901.0645   5018038.0552   1  10   0.0103   0.0059   0.0111   0.0044   0.0028   0.0048   0.00   24.3
2024/05/18 00:35:30.000   3655333.8668   1403901.0613   5018038.0600   1  10   0.0103   0.0060   0.0110   0.0043   0.0030   0.0048   0.00   24.9
2024/05/18 00:36:00.000   3655333.8641   1403901.0555   5018038.0637   1  10   0.0104   0.0060   0.0110   0.0043   0.0028   0.0048   0.00   26.4
2024/05/18 00:36:30.000   3655333.8684   1403901.0600   5018038.0601   1  10   0.0103   0.0059   0.0110   0.0044   0.0028   0.0047   0.00   27.4
2024/05/18 00:37:00.000   3655333.8707   1403901.0617   5018038.0652   1  10   0.0104   0.0059   0.0110   0.0044   0.0030   0.0046   0.00   28.2
2024/05/18 00:37:30.000   3655333.8786   1403901.0647   5018038.0657   1  10   0.0104   0.0058   0.0110   0.0044   0.0028   0.0045   0.00   28.4
2024/05/18 00:38:00.000   3655333.8628   1403901.0568   5018038.0559   1  10   0.0104   0.0060   0.0110   0.0043   0.0028   0.0045   0.00   30.2
2024/05/18 00:38:30.000   3655333.8700   1403901.0641   5018038.0595   1  10   0.0104   0.0058   0.0110   0.0044   0.0028   0.0045   0.00   30.5
2024/05/18 00:39:00.000   3655333.8626   1403901.0607   5018038.0442   1  10   0.0103   0.0060   0.0110   0.0045   0.0028   0.0044   0.00   32.9
2024/05/18 00:39:30.000   3655333.8646   1403901.0602   5018038.0497   1  10   0.0104   0.0059   0.0110   0.0044   0.0028   0.0044   0.00   34.5
2024/05/18 00:40:00.000   3655333.8594   1403901.0628   5018038.0491   1  10   0.0104   0.0058   0.0110   0.0043   0.0028   0.0043   0.00   36.3
2024/05/18 00:40:30.000   3655333.8652   1403901.0611   5018038.0562   1  10   0.0104   0.0059   0.0111   0.0043   0.0028   0.0043   0.00   38.5
2024/05/18 00:41:00.000   3655333.8650   1403901.0614   5018038.0490   1  10   0.0104   0.0058   0.0110   0.0044   0.0029   0.0042   0.00    2.9
2024/05/18 00:41:30.000   3655333.8620   1403901.0567   5018038.0482   1   9   0.0110   0.0059   0.0113   0.0041   0.0026   0.0051   0.00   73.8
2024/05/18 00:42:00.000   3655333.8666   1403901.0587   5018038.0472   1   9   0.0109   0.0059   0.0113   0.0042   0.0028   0.0051   0.00   76.1
2024/05/18 00:42:30.000   3655333.8624   1403901.0573   5018038.0460   1   9   0.0109   0.0059   0.0113   0.0042   0.0025   0.0050   0.00   78.7
2024/05/18 00:43:00.000   3655333.8627   1403901.0552   5018038.0516   1   9   0.0109   0.0057   0.0113   0.0042   0.0028   0.0050   0.00   84.1
2024/05/18 00:43:30.000   3655333.8640   1403901.0580   5018038.0503   1   9   0.0109   0.0057   0.0113   0.0042   0.0024   0.0049   0.00   89.7
2024/05/18 00:44:00.000   3655333.8566   1403901.0536   5018038.0487   1   9   0.0109   0.0057   0.0113   0.0042   0.0027   0.0048   0.00   98.8
2024/05/18 00:44:30.000   3655333.8684   1403901.0586   5018038.0523   1   9   0.0109   0.0057   0.0113   0.0042   0.0025   0.0048   0.00  101.5
2024/05/18 00:45:00.000   3655333.8555   1403901.0533   5018038.0445   1   9   0.0108   0.0058   0.0113   0.0042   0.0028   0.0047   0.00  113.5
2024/05/18 00:45:30.000   3655333.8619   1403901.0533   5018038.0491   1   9   0.0108   0.0059   0.0114   0.0042   0.0026   0.0047   0.00  121.9
2024/05/18 00:46:00.000   3655333.8595   1403901.0555   5018038.0472   1   9   0.0108   0.0056   0.0114   0.0041   0.0029   0.0046   0.00  130.2
2024/05/18 00:46:30.000   3655333.8617   1403901.0599   5018038.0562   1   9   0.0108   0.0056   0.0114   0.0041   0.0027   0.0046   0.00  136.0
2024/05/18 00:47:00.000   3655333.8566   1403901.0580   5018038.0578   1   9   0.0108   0.0057   0.0114   0.0043   0.0029   0.0045   0.00  145.0
2024/05/18 00:47:30.000   3655333.8750   1403901.0631   5018038.0579   1   9   0.0108   0.0058   0.0114   0.0042   0.0027   0.0044   0.00  144.9
2024/05/18 00:48:00.000   3655333.8679   1403901.0580   5018038.0572   1   9   0.0107   0.0056   0.0114   0.0043   0.0027   0.0044   0.00  151.5
2024/05/18 00:48:30.000   3655333.8657   1403901.0591   5018038.0610   1   9   0.0107   0.0055   0.0114   0.0043   0.0026   0.0044   0.00  150.4
2024/05/18 00:49:00.000   3655333.8623   1403901.0618   5018038.0575   1   9   0.0107   0.0057   0.0115   0.0040   0.0026   0.0043   0.00  154.2
2024/05/18 00:49:30.000   3655333.8524   1403901.0552   5018038.0578   1   9   0.0107   0.0057   0.0115   0.0041   0.0025   0.0042   0.00  158.5
2024/05/18 00:50:00.000   3655333.8511   1403901.0502   5018038.0556   1   9   0.0107   0.0056   0.0115   0.0042   0.0028   0.0042   0.00  167.2
2024/05/18 00:50:30.000   3655333.8490   1403901.0475   5018038.0539   1   9   0.0107   0.0056   0.0115   0.0042   0.0028   0.0042   0.00  174.6
2024/05/18 00:51:00.000   3655333.8552   1403901.0527   5018038.0598   1   9   0.0107   0.0056   0.0115   0.0042   0.0028   0.0041   0.00  183.9
2024/05/18 00:51:30.000   3655333.8646   1403901.0580   5018038.0587   1   9   0.0107   0.0057   0.0116   0.0043   0.0028   0.0041   0.00  184.0
2024/05/18 00:52:00.000   3655333.8550   1403901.0531   5018038.0620   1   9   0.0107   0.0056   0.0116   0.0041   0.0028   0.0041   0.00  193.4
2024/05/18 00:52:30.000   3655333.8544   1403901.0539   5018038.0585   1   9   0.0107   0.0057   0.0116   0.0043   0.0027   0.0040   0.00  197.0
2024/05/18 00:53:00.000   3655333.8656   1403901.0569   5018038.0569   1   9   0.0106   0.0056   0.0116   0.0043   0.0028   0.0039   0.00  192.2
2024/05/18 00:53:30.000   3655333.8505   1403901.0530   5018038.0533   1   9   0.0106   0.0056   0.0117   0.0042   0.0029   0.0039   0.00  192.8
2024/05/18 00:54:00.000   3655333.8593   1403901.0560   5018038.0546   1   9   0.0106   0.0057   0.0117   0.0043   0.0028   0.0039   0.00  184.5
2024/05/18 00:54:30.000   3655333.8594   1403901.0571   5018038.0505   1   9   0.0106   0.0057   0.0117   0.0042   0.0028   0.0039   0.00  176.8
2024/05/18 00:55:00.000   3655333.8674   1403901.0607   5018038.0564   1  10   0.0106   0.0056   0.0108   0.0042   0.0032   0.0039   0.00    3.2
2024/05/18 00:55:30.000   3655333.8568   1403901.0528   5018038.0501   1  10   0.0106   0.0055   0.0108   0.0042   0.0031   0.0039   0.00    5.5
2024/05/18 00:56:00.000   3655333.8671   1403901.0584   5018038.0472   1  10   0.0106   0.0056   0.0108   0.0043   0.0030   0.0038   0.00    8.2
2024/05/18 00:56:30.000   3655333.8731   1403901.0592   5018038.0527   1  10   0.0105   0.0057   0.0108   0.0041   0.0032   0.0038   0.00   10.4
2024/05/18 00:57:00.000   3655333.8707   1403901.0602   5018038.0577   1  10   0.0106   0.0056   0.0108   0.0043   0.0032   0.0038   0.00   13.0
2024/05/18 00:57:30.000   3655333.8741   1403901.0583   5018038.0591   1  10   0.0105   0.0056   0.0108   0.0040   0.0030   0.0039   0.00   15.6
2024/05/18 00:58:00.000   3655333.8678   1403901.0574   5018038.0587   1  10   0.0105   0.0055   0.0108   0.0040   0.0033   0.0039   0.00   18.0
2024/05/18 00:58:30.000   3655333.8521   1403901.0526   5018038.0573   1  10   0.0105   0.0056   0.0108   0.0043   0.0033   0.0039   0.00   20.4
2024/05/18 00:59:00.000   3655333.8554   1403901.0552   5018038.0507   1  10   0.0105   0.0055   0.0108   0.0042   0.0034   0.0039   0.00   22.9
2024/05/18 00:59:30.000   3655333.8656   1403901.0586   5018038.0595   1  10   0.0105   0.0057   0.0108   0.0041   0.0033   0.0039   0.00   26.5
2024/05/18 01:00:00.000   3655333.8614   1403901.0581   5018038.0579   1  10   0.0104   0.0056   0.0109   0.0042   0.0034   0.0039   0.00   30.1
2024/05/18 01:00:30.000   3655333.8646   1403901.0611   5018038.0510   1  10   0.0104   0.0054   0.0109   0.0040   0.0035   0.0039   0.00   33.5
2024/05/18 01:01:00.000   3655333.8595   1403901.0570   5018038.0489   1  10   0.0104   0.0054   0.0108   0.0042   0.0036   0.0038   0.00   36.9
2024/05/18 01:01:30.000   3655333.8628   1403901.0572   5018038.0511   1  10   0.0104   0.0055   0.0109   0.0042   0.0033   0.0040   0.00   40.2
2024/05/18 01:02:00.000   3655333.8556   1403901.0550   5018038.0527   1  10   0.0104   0.0054   0.0109   0.0041   0.0035   0.0039   0.00   43.5
2024/05/18 01:02:30.000   3655333.8601   1403901.0559   5018038.0542   1  10   0.0103   0.0054   0.0109   0.0042   0.0035   0.0039   0.00   47.1
2024/05/18 01:03:00.000   3655333.8677   1403901.0632   5018038.0551   1  10   0.0103   0.0056   0.0109   0.0042   0.0037   0.0040   0.00   50.2
2024/05/18 01:03:30.000   3655333.8738   1403901.0649   5018038.0537   1  10   0.0103   0.0056   0.0110   0.0042   0.0036   0.0040   0.00   54.7
2024/05/18 01:04:00.000   3655333.8688   1403901.0574   5018038.0518   1  10   0.0103   0.0055   0.0110   0.0042   0.0035   0.0040   0.00   59.0
2024/05/18 01:04:30.000   3655333.8657   1403901.0571   5018038.0559   1  10   0.0103   0.0056   0.0109   0.0042   0.0036   0.0040   0.00   63.9
2024/05/18 01:05:00.000   3655333.8495   1403901.0533   5018038.0540   1  10   0.0103   0.0054   0.0110   0.0041   0.0038   0.0041   0.00   67.1
2024/05/18 01:05:30.000   3655333.8685   1403901.0573   5018038.0543   1  10   0.0103   0.0055   0.0110   0.0042   0.0038   0.0041   0.00   69.7
2024/05/18 01:06:00.000   3655333.8702   1403901.0558   5018038.0572   1  10   0.0103   0.0054   0.0110   0.0041   0.0038   0.0041   0.00   71.9
2024/05/18 01:06:30.000   3655333.8626   1403901.0600   5018038.0622   1  10   0.0102   0.0055   0.0110   0.0043   0.0039   0.0041   0.00   75.1
2024/05/18 01:07:00.000   3655333.8694   1403901.0606   5018038.0567   1  10   0.0102   0.0058   0.0111   0.0042   0.0038   0.0042   0.00   76.8
2024/05/18 01:07:30.000   3655333.8809   1403901.0663   5018038.0566   1  10   0.0102   0.0053   0.0110   0.0042   0.0037   0.0043   0.00   77.8
2024/05/18 01:08:00.000   3655333.8783   1403901.0673   5018038.0574   1  10   0.0102   0.0056   0.0110   0.0043   0.0038   0.0043   0.00   74.7
2024/05/18 01:08:30.000   3655333.8817   1403901.0671   5018038.0542   1  10   0.0101   0.0056   0.0111   0.0041   0.0040   0.0043   0.00    4.1
2024/05/18 01:09:00.000   3655333.8739   1403901.0650   5018038.0548   1  10   0.0101   0.0056   0.0111   0.0041   0.0041   0.0043   0.00    6.5
2024/05/18 01:09:30.000   3655333.8782   1403901.0664   5018038.0574   1  10   0.0101   0.0053   0.0112   0.0042   0.0040   0.0044   0.00    9.3
2024/05/18 01:10:00.000   3655333.8776   1403901.0661   5018038.0578   1  10   0.0101   0.0056   0.0112   0.0043   0.0041   0.0045   0.00   11.5
2024/05/18 01:10:30.000   3655333.8787   1403901.0662   5018038.0564   1  10   0.0101   0.0055   0.0112   0.0042   0.0041   0.0045   0.00   13.3
2024/05/18 01:11:00.000   3655333.8755   1403901.0598   5018038.0581   1  10   0.0101   0.0053   0.0112   0.0041   0.0042   0.0046   0.00   15.5
2024/05/18 01:11:30.000   3655333.8708   1403901.0591   5018038.0513   1   9   0.0101   0.0054   0.0124   0.0042   0.0047   0.0042   0.00   19.9
2024/05/18 01:12:00.000   3655333.8781   1403901.0636   5018038.0564   1   9   0.0100   0.0056   0.0124   0.0041   0.0048   0.0043   0.00   20.9
2024/05/18 01:12:30.000   3655333.8757   1403901.0593   5018038.0577   1   9   0.0100   0.0054   0.0124   0.0043   0.0048   0.0044   0.00   22.0
2024/05/18 01:13:00.000   3655333.8719   1403901.0604   5018038.0533   1   9   0.0100   0.0055   0.0124   0.0042   0.0047   0.0045   0.00   23.4
2024/05/18 01:13:30.000   3655333.8697   1403901.0555   5018038.0489   1   9   0.0100   0.0055   0.0124   0.0041   0.0048   0.0046   0.00   24.9
2024/05/18 01:14:00.000   3655333.8642   1403901.0552   5018038.0544   1   9   0.0100   0.0056   0.0123   0.0042   0.0048   0.0046   0.00   26.7
2024/05/18 01:14:30.000   3655333.8744   1403901.0613   5018038.0597   1   9   0.0100   0.0056   0.0123   0.0042   0.0049   0.0047   0.00   27.5
2024/05/18 01:15:00.000   3655333.8657   1403901.0533   5018038.0495   1   9   0.0099   0.0057   0.0123   0.0043   0.0049   0.0049   0.00   30.5
2024/05/18 01:15:30.000   3655333.8764   1403901.0584   5018038.0501   1   9   0.0099   0.0056   0.0123   0.0042   0.0049   0.0049   0.00   32.7
2024/05/18 01:16:00.000   3655333.8761   1403901.0596   5018038.0515   1   9   0.0099   0.0057   0.0123   0.0043   0.0050   0.0050   0.00   34.9
2024/05/18 01:16:30.000   3655333.8639   1403901.0526   5018038.0484   1   9   0.0099   0.0057   0.0123   0.0042   0.0050   0.0051   0.00   37.1
2024/05/18 01:17:00.000   3655333.8742   1403901.0620   5018038.0592   1   9   0.0099   0.0056   0.0124   0.0044   0.0048   0.0052   0.00   39.5
2024/05/18 01:17:30.000   3655333.8789   1403901.0657   5018038.0590   1   9   0.0099   0.0056   0.0123   0.0044   0.0049   0.0052   0.00   39.8
2024/05/18 01:18:00.000   3655333.8768   1403901.0653   5018038.0590   1   9   0.0099   0.0057   0.0124   0.0042   0.0051   0.0054   0.00   40.8
2024/05/18 01:18:30.000   3655333.8880   1403901.0697   5018038.0579   1   9   0.0099   0.0054   0.0124   0.0044   0.0050   0.0054   0.00   40.3
2024/05/18 01:19:00.000   3655333.8722   1403901.0621   5018038.0495   1   9   0.0099   0.0056   0.0124   0.0044   0.0050   0.0055   0.00   42.9
2024/05/18 01:19:30.000   3655333.8743   1403901.0611   5018038.0563   1   9   0.0099   0.0054   0.0123   0.0044   0.0051   0.0056   0.00   44.1
2024/05/18 01:20:00.000   3655333.8824   1403901.0676   5018038.0583   1   9   0.0098   0.0056   0.0124   0.0043   0.0049   0.0057   0.00   45.1
2024/05/18 01:20:30.000   3655333.8729   1403901.0594   5018038.0582   1   9   0.0099   0.0056   0.0124   0.0045   0.0052   0.0058   0.00   48.2
2024/05/18 01:21:00.000   3655333.8785   1403901.0639   5018038.0575   1   9   0.0098   0.0055   0.0124   0.0045   0.0051   0.0059   0.00   49.0
2024/05/18 01:21:30.000   3655333.8676   1403901.0588   5018038.0579   1   9   0.0098   0.0055   0.0124   0.0045   0.0051   0.0059   0.00   52.0
2024/05/18 01:22:00.000   3655333.8664   1403901.0552   5018038.0501   1   9   0.0098   0.0056   0.0125   0.0046   0.0053   0.0060   0.00   55.7
2024/05/18 01:22:30.000   3655333.8715   1403901.0579   5018038.0532   1   9   0.0098   0.0058   0.0124   0.0045   0.0051   0.0061   0.00   57.2
2024/05/18 01:23:00.000   3655333.8814   1403901.0630   5018038.0651   1   9   0.0098   0.0057   0.0125   0.0045   0.0053   0.0062   0.00   57.9
2024/05/18 01:23:30.000   3655333.8828   1403901.0614   5018038.0649   1   9   0.0098   0.0056   0.0126   0.0047   0.0053   0.0062   0.00   58.5
2024/05/18 01:24:00.000   3655333.8824   1403901.0639   5018038.0604   1   9   0.0098   0.0058   0.0126   0.0046   0.0053   0.0064   0.00   60.0
2024/05/18 01:24:30.000   3655333.8662   1403901.0551   5018038.0536   1   9   0.0098   0.0054   0.0126   0.0047   0.0053   0.0064   0.00   62.8
2024/05/18 01:25:00.000   3655333.8746   1403901.0599   5018038.0567   1   9   0.0098   0.0057   0.0127   0.0046   0.0054   0.0065   0.00   65.5
2024/05/18 01:25:30.000   3655333.8584   1403901.0500   5018038.0438   1   9   0.0098   0.0057   0.0126   0.0046   0.0054   0.0066   0.00   71.5
2024/05/18 01:26:00.000   3655333.8626   1403901.0537   5018038.0460   1   9   0.0098   0.0058   0.0127   0.0048   0.0054   0.0067   0.00   76.4
2024/05/18 01:26:30.000   3655333.8657   1403901.0550   5018038.0541   1   9   0.0098   0.0055   0.0127   0.0047   0.0054   0.0068   0.00   80.0
2024/05/18 01:27:00.000   3655333.8629   1403901.0548   5018038.0522   1   9   0.0098   0.0057   0.0127   0.0048   0.0054   0.0068   0.00   84.2
2024/05/18 01:27:30.000   3655333.8695   1403901.0597   5018038.0549   1   9   0.0099   0.0056   0.0128   0.0048   0.0055   0.0069   0.00   85.5
2024/05/18 01:28:00.000   3655333.8689   1403901.0577   5018038.0549   1   9   0.0098   0.0057   0.0128   0.0049   0.0056   0.0070   0.00   92.2
2024/05/18 01:28:30.000   3655333.8769   1403901.0642   5018038.0603   1   9   0.0098   0.0055   0.0129   0.0049   0.0055   0.0071   0.00   95.7
2024/05/18 01:29:00.000   3655333.8737   1403901.0604   5018038.0577   1   9   0.0098   0.0056   0.0129   0.0049   0.0055   0.0072   0.00   96.5
2024/05/18 01:29:30.000   3655333.8746   1403901.0623   5018038.0614   1   9   0.0098   0.0058   0.0130   0.0049   0.0057   0.0073   0.00   98.7
2024/05/18 01:30:00.000   3655333.8811   1403901.0659   5018038.0605   1   9   0.0099   0.0059   0.0130   0.0050   0.0057   0.0074   0.00   94.7
2024/05/18 01:30:30.000   3655333.8708   1403901.0612   5018038.0578   1   9   0.0099   0.0057   0.0130   0.0050   0.0058   0.0074   0.00   92.7
2024/05/18 01:31:00.000   3655333.8695   1403901.0595   5018038.0577   1   9   0.0099   0.0058   0.0130   0.0050   0.0058   0.0075   0.00   93.7
2024/05/18 01:31:30.000   3655333.8535   1403901.0509   5018038.0525   1   9   0.0099   0.0060   0.0131   0.0050   0.0058   0.0076   0.00   98.2
2024/05/18 01:32:00.000   3655333.8649   1403901.0558   5018038.0549   1   9   0.0099   0.0059   0.0131   0.0051   0.0058   0.0076   0.00  100.8
2024/05/18 01:32:30.000   3655333.8701   1403901.0607   5018038.0593   1   9   0.0099   0.0060   0.0132   0.0051   0.0059   0.0078   0.00  101.9
2024/05/18 01:33:00.000   3655333.8735   1403901.0648   5018038.0584   1   9   0.0100   0.0058   0.0132   0.0050   0.0059   0.0078   0.00  103.2
2024/05/18 01:33:30.000   3655333.8769   1403901.0685   5018038.0636   1   9   0.0100   0.0058   0.0133   0.0051   0.0060   0.0079   0.00  103.1
2024/05/18 01:34:00.000   3655333.8712   1403901.0628   5018038.0561   1   9   0.0100   0.0059   0.0133   0.0053   0.0060   0.0080   0.00  101.0
2024/05/18 01:34:30.000   3655333.8812   1403901.0714   5018038.0700   1   9   0.0100   0.0059   0.0134   0.0053   0.0060   0.0081   0.00   97.9
2024/05/18 01:35:00.000   3655333.8654   1403901.0796   5018038.0595   2  10   0.0116   0.0101   0.0145   0.0034   0.0067   0.0095   0.00    1.7
2024/05/18 01:35:30.000   3655333.8696   1403901.0585   5018038.0528   1  10   0.0093   0.0057   0.0133   0.0048   0.0058   0.0078   0.00    3.0
2024/05/18 01:36:00.000   3655333.8562   1403901.0551   5018038.0442   1  10   0.0094   0.0057   0.0133   0.0046   0.0058   0.0078   0.00    3.5
2024/05/18 01:36:30.000   3655333.8706   1403901.0617   5018038.0616   1  10   0.0095   0.0055   0.0134   0.0047   0.0058   0.0078   0.00    4.6
2024/05/18 01:37:00.000   3655333.8632   1403901.0543   5018038.0549   1  10   0.0094   0.0058   0.0134   0.0045   0.0059   0.0080   0.00    6.0
2024/05/18 01:37:30.000   3655333.8614   1403901.0723   5018038.0577   2  10   0.0117   0.0101   0.0148   0.0038   0.0069   0.0098   0.00    2.1
2024/05/18 01:38:00.000   3655333.8563   1403901.0679   5018038.0498   2  10   0.0117   0.0100   0.0148   0.0039   0.0069   0.0100   0.00    2.2
2024/05/18 01:38:30.000   3655333.8648   1403901.0713   5018038.0525   2  10   0.0117   0.0099   0.0149   0.0042   0.0069   0.0101   0.00    1.9
2024/05/18 01:39:00.000   3655333.8657   1403901.0611   5018038.0551   1  10   0.0094   0.0055   0.0137   0.0049   0.0059   0.0083   0.00    3.3
2024/05/18 01:39:30.000   3655333.8702   1403901.0653   5018038.0525   1  10   0.0095   0.0055   0.0137   0.0050   0.0060   0.0083   0.00    4.5
2024/05/18 01:40:00.000   3655333.8702   1403901.0620   5018038.0557   1  10   0.0094   0.0055   0.0137   0.0049   0.0060   0.0084   0.00    5.7
2024/05/18 01:40:30.000   3655333.8689   1403901.0630   5018038.0541   1  10   0.0095   0.0058   0.0138   0.0049   0.0061   0.0084   0.00    6.6
2024/05/18 01:41:00.000   3655333.8631   1403901.0573   5018038.0554   1  10   0.0096   0.0058   0.0138   0.0047   0.0062   0.0085   0.00    7.7
2024/05/18 01:41:30.000   3655333.8664   1403901.0613   5018038.0499   1  10   0.0096   0.0059   0.0139   0.0047   0.0062   0.0086   0.00    8.9
2024/05/18 01:42:00.000   3655333.8705   1403901.0629   5018038.0505   1  10   0.0095   0.0057   0.0140   0.0050   0.0062   0.0087   0.00   10.0
2024/05/18 01:42:30.000   3655333.8665   1403901.0632   5018038.0576   1  10   0.0096   0.0057   0.0140   0.0052   0.0062   0.0088   0.00   11.0
2024/05/18 01:43:00.000   3655333.8669   1403901.0611   5018038.0557   1  10   0.0097   0.0058   0.0141   0.0048   0.0063   0.0089   0.00   12.3
2024/05/18 01:43:30.000   3655333.8585   1403901.0587   5018038.0536   1  10   0.0096   0.0058   0.0142   0.0052   0.0063   0.0090   0.00   13.6
2024/05/18 01:44:00.000   3655333.8753   1403901.0679   5018038.0736   1  10   0.0097   0.0058   0.0142   0.0050   0.0064   0.0090   0.00   14.3
2024/05/18 01:44:30.000   3655333.8663   1403901.0643   5018038.0622   1  10   0.0095   0.0057   0.0143   0.0052   0.0063   0.0092   0.00   15.0
2024/05/18 01:45:00.000   3655333.8717   1403901.0675   5018038.0662   1  10   0.0097   0.0060   0.0143   0.0050   0.0064   0.0092   0.00   15.8
2024/05/18 01:45:30.000   3655333.8724   1403901.0672   5018038.0675   1  10   0.0097   0.0058   0.0144   0.0051   0.0064   0.0093   0.00   16.7
2024/05/18 01:46:00.000   3655333.8740   1403901.0664   5018038.0713   1  10   0.0098   0.0059   0.0145   0.0052   0.0065   0.0093   0.00   17.5
2024/05/18 01:46:30.000   3655333.8676   1403901.0598   5018038.0518   1  10   0.0097   0.0055   0.0145   0.0054   0.0064   0.0094   0.00   18.8
2024/05/18 01:47:00.000   3655333.8769   1403901.0672   5018038.0676   1  10   0.0099   0.0057   0.0146   0.0052   0.0066   0.0094   0.00   19.7
2024/05/18 01:47:30.000   3655333.8780   1403901.0672   5018038.0712   1  10   0.0099   0.0059   0.0146   0.0054   0.0066   0.0095   0.00   20.7
2024/05/18 01:48:00.000   3655333.8745   1403901.0667   5018038.0725   1  10   0.0099   0.0058   0.0147   0.0053   0.0067   0.0096   0.00   21.6
2024/05/18 01:48:30.000   3655333.8646   1403901.0602   5018038.0602   1  10   0.0099   0.0057   0.0148   0.0057   0.0066   0.0097   0.00   22.5
2024/05/18 01:49:00.000   3655333.8632   1403901.0588   5018038.0549   1  10   0.0100   0.0060   0.0148   0.0054   0.0067   0.0098   0.00   22.3
2024/05/18 01:49:30.000   3655333.8631   1403901.0630   5018038.0631   1  10   0.0100   0.0059   0.0149   0.0054   0.0068   0.0099   0.00   22.8
2024/05/18 01:50:00.000   3655333.8610   1403901.0579   5018038.0544   1  10   0.0100   0.0061   0.0149   0.0056   0.0068   0.0100   0.00   23.8
2024/05/18 01:50:30.000   3655333.8706   1403901.0630   5018038.0601   1  10   0.0101   0.0060   0.0150   0.0055   0.0068   0.0100   0.00   24.7
2024/05/18 01:51:00.000   3655333.8664   1403901.0622   5018038.0605   1  10   0.0101   0.0060   0.0150   0.0055   0.0069   0.0101   0.00   25.3
2024/05/18 01:51:30.000   3655333.8746   1403901.0656   5018038.0717   1  10   0.0101   0.0057   0.0151   0.0057   0.0068   0.0102   0.00   25.1
2024/05/18 01:52:00.000   3655333.8723   1403901.0619   5018038.0666   1  10   0.0101   0.0060   0.0152   0.0056   0.0069   0.0103   0.00   24.8
2024/05/18 01:52:30.000   3655333.8701   1403901.0665   5018038.0645   1  10   0.0102   0.0060   0.0153   0.0056   0.0070   0.0103   0.00   25.4
2024/05/18 01:53:00.000   3655333.8696   1403901.0618   5018038.0682   1  10   0.0103   0.0059   0.0153   0.0057   0.0069   0.0104   0.00   26.3
2024/05/18 01:53:30.000   3655333.8747   1403901.0626   5018038.0715   1  10   0.0103   0.0059   0.0154   0.0057   0.0070   0.0105   0.00   26.5
2024/05/18 01:54:00.000   3655333.8570   1403901.0717   5018038.0633   2  10   0.0125   0.0087   0.0178   0.0053   0.0074   0.0129   0.00    2.0
2024/05/18 01:54:30.000   3655333.8595   1403901.0764   5018038.0606   2  10   0.0125   0.0088   0.0179   0.0053   0.0075   0.0130   0.00    1.8
2024/05/18 01:55:00.000   3655333.8629   1403901.0788   5018038.0747   2  10   0.0127   0.0087   0.0179   0.0053   0.0075   0.0129   0.00    1.7
2024/05/18 01:55:30.000   3655333.8729   1403901.0687   5018038.0763   1  10   0.0105   0.0060   0.0156   0.0057   0.0072   0.0107   0.00    2.5
2024/05/18 01:56:00.000   3655333.8716   1403901.0650   5018038.0705   1  10   0.0104   0.0061   0.0156   0.0059   0.0071   0.0108   0.00    3.2
2024/05/18 01:56:30.000   3655333.8728   1403901.0671   5018038.0679   1  10   0.0105   0.0062   0.0157   0.0058   0.0072   0.0108   0.00    3.9
2024/05/18 01:57:00.000   3655333.8722   1403901.0641   5018038.0583   1  10   0.0107   0.0060   0.0157   0.0060   0.0072   0.0109   0.00    4.6
2024/05/18 01:57:30.000   3655333.8752   1403901.0710   5018038.0681   1  10   0.0106   0.0062   0.0158   0.0060   0.0073   0.0110   0.00    5.3
2024/05/18 01:58:00.000   3655333.8615   1403901.0738   5018038.0631   2  11   0.0121   0.0085   0.0169   0.0053   0.0072   0.0123   0.00    1.5
2024/05/18 01:58:30.000   3655333.8697   1403901.0820   5018038.0727   2  11   0.0119   0.0084   0.0163   0.0053   0.0067   0.0119   0.00    2.0
2024/05/18 01:59:00.000   3655333.8576   1403901.0596   5018038.0569   1  10   0.0110   0.0060   0.0155   0.0058   0.0065   0.0113   0.00    2.8
2024/05/18 01:59:30.000   3655333.8761   1403901.0692   5018038.0691   1  10   0.0110   0.0059   0.0155   0.0058   0.0067   0.0113   0.00    3.4
2024/05/18 02:00:00.000   3655333.8683   1403901.0653   5018038.0539   1  10   0.0111   0.0058   0.0155   0.0057   0.0067   0.0113   0.00    4.2
2024/05/18 02:00:30.000   3655333.8748   1403901.0642   5018038.0614   1  10   0.0111   0.0058   0.0155   0.0059   0.0065   0.0114   0.00    4.9
2024/05/18 02:01:00.000   3655333.8680   1403901.0602   5018038.0545   1  10   0.0112   0.0059   0.0155   0.0059   0.0067   0.0113   0.00    5.8
2024/05/18 02:01:30.000   3655333.8763   1403901.0626   5018038.0677   1  10   0.0111   0.0060   0.0154   0.0058   0.0066   0.0113   0.00    6.6
2024/05/18 02:02:00.000   3655333.8734   1403901.0620   5018038.0566   1  10   0.0111   0.0058   0.0154   0.0059   0.0065   0.0113   0.00    7.5
2024/05/18 02:02:30.000   3655333.8728   1403901.0580   5018038.0591   1  10   0.0112   0.0058   0.0154   0.0058   0.0065   0.0113   0.00    8.7
2024/05/18 02:03:00.000   3655333.8733   1403901.0615   5018038.0610   1  10   0.0111   0.0060   0.0154   0.0057   0.0066   0.0113   0.00    9.8
2024/05/18 02:03:30.000   3655333.8685   1403901.0569   5018038.0498   1  10   0.0111   0.0060   0.0153   0.0059   0.0065   0.0114   0.00   11.2
2024/05/18 02:04:00.000   3655333.8696   1403901.0635   5018038.0537   1  10   0.0111   0.0060   0.0153   0.0058   0.0065   0.0113   0.00   12.3
2024/05/18 02:04:30.000   3655333.8687   1403901.0619   5018038.0584   1  10   0.0112   0.0060   0.0153   0.0058   0.0066   0.0113   0.00   13.3
2024/05/18 02:05:00.000   3655333.8651   1403901.0632   5018038.0557   1  10   0.0111   0.0058   0.0153   0.0059   0.0064   0.0112   0.00   14.4
2024/05/18 02:05:30.000   3655333.8680   1403901.0619   5018038.0546   1  10   0.0111   0.0058   0.0151   0.0059   0.0064   0.0113   0.00   15.6
2024/05/18 02:06:00.000   3655333.8709   1403901.0638   5018038.0609   1  10   0.0112   0.0057   0.0152   0.0059   0.0064   0.0113   0.00   16.9
2024/05/18 02:06:30.000   3655333.8641   1403901.0639   5018038.0573   1  10   0.0112   0.0060   0.0151   0.0058   0.0065   0.0113   0.00   19.2
2024/05/18 02:07:00.000   3655333.8721   1403901.0663   5018038.0605   1  10   0.0111   0.0061   0.0151   0.0059   0.0064   0.0113   0.00   20.8
2024/05/18 02:07:30.000   3655333.8669   1403901.0637   5018038.0578   1  10   0.0112   0.0061   0.0150   0.0058   0.0064   0.0113   0.00   22.7
2024/05/18 02:08:00.000   3655333.8635   1403901.0653   5018038.0568   1  10   0.0112   0.0058   0.0150   0.0059   0.0063   0.0112   0.00   23.9
2024/05/18 02:08:30.000   3655333.8816   1403901.0696   5018038.0705   1  10   0.0111   0.0062   0.0150   0.0059   0.0063   0.0112   0.00   25.6
2024/05/18 02:09:00.000   3655333.8842   1403901.0699   5018038.0760   1  10   0.0111   0.0060   0.0149   0.0059   0.0063   0.0112   0.00   27.4
2024/05/18 02:09:30.000   3655333.8733   1403901.0631   5018038.0632   1  10   0.0111   0.0063   0.0149   0.0059   0.0062   0.0112   0.00   30.1
2024/05/18 02:10:00.000   3655333.8724   1403901.0626   5018038.0658   1  10   0.0111   0.0060   0.0148   0.0060   0.0063   0.0112   0.00   33.5
2024/05/18 02:10:30.000   3655333.8780   1403901.0638   5018038.0679   1  10   0.0111   0.0059   0.0148   0.0059   0.0063   0.0112   0.00   36.8
2024/05/18 02:11:00.000   3655333.8622   1403901.0579   5018038.0525   1  10   0.0111   0.0059   0.0147   0.0061   0.0063   0.0111   0.00   40.0
2024/05/18 02:11:30.000   3655333.8679   1403901.0639   5018038.0586   1  10   0.0111   0.0059   0.0147   0.0059   0.0062   0.0111   0.00   43.7
2024/05/18 02:12:00.000   3655333.8640   1403901.0596   5018038.0607   1  10   0.0110   0.0059   0.0146   0.0060   0.0063   0.0111   0.00   46.9
2024/05/18 02:12:30.000   3655333.8711   1403901.0645   5018038.0695   1  10   0.0111   0.0058   0.0146   0.0061   0.0062   0.0110   0.00   51.5
2024/05/18 02:13:00.000   3655333.8813   1403901.0690   5018038.0780   1  10   0.0111   0.0062   0.0145   0.0057   0.0062   0.0111   0.00   53.9
2024/05/18 02:13:30.000   3655333.8797   1403901.0692   5018038.0773   1  10   0.0111   0.0058   0.0145   0.0060   0.0061   0.0110   0.00   56.6
2024/05/18 02:14:00.000   3655333.8732   1403901.0642   5018038.0679   1  10   0.0111   0.0062   0.0145   0.0058   0.0061   0.0110   0.00   59.8
2024/05/18 02:14:30.000   3655333.8735   1403901.0634   5018038.0651   1  10   0.0111   0.0059   0.0144   0.0060   0.0062   0.0109   0.00   62.3
2024/05/18 02:15:00.000   3655333.8644   1403901.0597   5018038.0583   1  10   0.0111   0.0061   0.0143   0.0059   0.0060   0.0110   0.00   65.4
2024/05/18 02:15:30.000   3655333.8635   1403901.0587   5018038.0603   1  10   0.0110   0.0059   0.0143   0.0060   0.0061   0.0109   0.00   69.2
2024/05/18 02:16:00.000   3655333.8679   1403901.0654   5018038.0621   1  10   0.0110   0.0061   0.0142   0.0058   0.0060   0.0109   0.00   69.2
2024/05/18 02:16:30.000   3655333.8613   1403901.0577   5018038.0560   1  10   0.0110   0.0058   0.0142   0.0060   0.0061   0.0109   0.00   70.8
2024/05/18 02:17:00.000   3655333.8539   1403901.0552   5018038.0469   1  10   0.0110   0.0055   0.0141   0.0062   0.0062   0.0108   0.00   71.9
2024/05/18 02:17:30.000   3655333.8606   1403901.0598   5018038.0522   1  10   0.0110   0.0060   0.0140   0.0059   0.0060   0.0108   0.00   73.1
2024/05/18 02:18:00.000   3655333.8614   1403901.0622   5018038.0581   1  10   0.0110   0.0062   0.0140   0.0058   0.0059   0.0108   0.00   73.1
2024/05/18 02:18:30.000   3655333.8627   1403901.0636   5018038.0535   1  10   0.0110   0.0059   0.0140   0.0060   0.0059   0.0107   0.00   75.3
2024/05/18 02:19:00.000   3655333.8679   1403901.0631   5018038.0596   1  10   0.0110   0.0059   0.0140   0.0060   0.0059   0.0107   0.00   78.0
2024/05/18 02:19:30.000   3655333.8663   1403901.0636   5018038.0618   1  10   0.0110   0.0061   0.0139   0.0060   0.0059   0.0107   0.00   81.2
2024/05/18 02:20:00.000   3655333.8684   1403901.0636   5018038.0595   1  10   0.0109   0.0060   0.0138   0.0060   0.0060   0.0106   0.00   83.5
2024/05/18 02:20:30.000   3655333.8674   1403901.0634   5018038.0616   1  10   0.0109   0.0066   0.0137   0.0058   0.0058   0.0107   0.00   88.7
2024/05/18 02:21:00.000   3655333.8686   1403901.0612   5018038.0621   1  10   0.0109   0.0059   0.0137   0.0060   0.0059   0.0106   0.00   94.7
2024/05/18 02:21:30.000   3655333.8629   1403901.0608   5018038.0571   1  10   0.0109   0.0061   0.0136   0.0060   0.0058   0.0105   0.00  100.0
2024/05/18 02:22:00.000   3655333.8645   1403901.0658   5018038.0555   1  10   0.0109   0.0062   0.0135   0.0058   0.0058   0.0105   0.00  107.2
2024/05/18 02:22:30.000   3655333.8568   1403901.0630   5018038.0518   1  10   0.0109   0.0060   0.0135   0.0060   0.0056   0.0104   0.00  114.1
2024/05/18 02:23:00.000   3655333.8607   1403901.0646   5018038.0504   1  10   0.0108   0.0058   0.0135   0.0060   0.0059   0.0104   0.00  117.3
2024/05/18 02:23:30.000   3655333.8661   1403901.0642   5018038.0581   1  10   0.0109   0.0057   0.0134   0.0060   0.0057   0.0103   0.00  120.9
2024/05/18 02:24:00.000   3655333.8537   1403901.0567   5018038.0489   1  10   0.0108   0.0061   0.0133   0.0059   0.0057   0.0103   0.00  125.4
2024/05/18 02:24:30.000   3655333.8502   1403901.0600   5018038.0462   1  10   0.0109   0.0065   0.0133   0.0058   0.0055   0.0103   0.00  127.5
2024/05/18 02:25:00.000   3655333.8624   1403901.0631   5018038.0568   1  10   0.0108   0.0060   0.0133   0.0060   0.0056   0.0103   0.00  129.4
2024/05/18 02:25:30.000   3655333.8542   1403901.0624   5018038.0478   1  10   0.0108   0.0064   0.0132   0.0059   0.0055   0.0102   0.00  130.0
2024/05/18 02:26:00.000   3655333.8557   1403901.0585   5018038.0484   1  10   0.0108   0.0063   0.0131   0.0059   0.0055   0.0102   0.00  132.6
2024/05/18 02:26:30.000   3655333.8600   1403901.0607   5018038.0543   1  10   0.0108   0.0064   0.0130   0.0058   0.0054   0.0102   0.00  139.1
2024/05/18 02:27:00.000   3655333.8578   1403901.0616   5018038.0500   1  10   0.0108   0.0060   0.0131   0.0061   0.0054   0.0101   0.00  146.8
2024/05/18 02:27:30.000   3655333.8631   1403901.0626   5018038.0621   1  10   0.0107   0.0066   0.0130   0.0059   0.0052   0.0100   0.00  151.5
2024/05/18 02:28:00.000   3655333.8563   1403901.0606   5018038.0524   1  10   0.0108   0.0061   0.0130   0.0061   0.0054   0.0100   0.00  155.0
2024/05/18 02:28:30.000   3655333.8678   1403901.0658   5018038.0626   1  10   0.0107   0.0063   0.0128   0.0060   0.0055   0.0100   0.00  161.1
2024/05/18 02:29:00.000   3655333.8677   1403901.0673   5018038.0601   1  10   0.0107   0.0064   0.0128   0.0060   0.0051   0.0099   0.00  165.6
2024/05/18 02:29:30.000   3655333.8640   1403901.0628   5018038.0604   1  10   0.0106   0.0062   0.0128   0.0061   0.0055   0.0099   0.00  175.2
2024/05/18 02:30:00.000   3655333.8673   1403901.0677   5018038.0641   1  10   0.0107   0.0064   0.0128   0.0059   0.0053   0.0098   0.00  185.4
2024/05/18 02:30:30.000   3655333.8658   1403901.0659   5018038.0654   1  10   0.0106   0.0061   0.0127   0.0061   0.0052   0.0098   0.00  197.8
2024/05/18 02:31:00.000   3655333.8630   1403901.0648   5018038.0645   1  10   0.0107   0.0061   0.0126   0.0061   0.0052   0.0097   0.00  208.3
2024/05/18 02:31:30.000   3655333.8505   1403901.0605   5018038.0475   1  10   0.0107   0.0064   0.0126   0.0060   0.0054   0.0097   0.00  212.1
2024/05/18 02:32:00.000   3655333.8599   1403901.0643   5018038.0568   1  10   0.0107   0.0063   0.0126   0.0061   0.0051   0.0097   0.00  209.2
2024/05/18 02:32:30.000   3655333.8486   1403901.0562   5018038.0525   1  10   0.0106   0.0064   0.0125   0.0060   0.0051   0.0097   0.00  212.6
2024/05/18 02:33:00.000   3655333.8566   1403901.0578   5018038.0633   1  10   0.0106   0.0063   0.0124   0.0061   0.0051   0.0097   0.00  214.9
2024/05/18 02:33:30.000   3655333.8583   1403901.0625   5018038.0560   1  10   0.0106   0.0064   0.0124   0.0060   0.0051   0.0096   0.00  216.4
2024/05/18 02:34:00.000   3655333.8483   1403901.0584   5018038.0462   1  10   0.0105   0.0064   0.0123   0.0062   0.0052   0.0095   0.00  217.2
2024/05/18 02:34:30.000   3655333.8577   1403901.0596   5018038.0532   1  10   0.0106   0.0066   0.0123   0.0060   0.0051   0.0096   0.00  215.9
2024/05/18 02:35:00.000   3655333.8589   1403901.0629   5018038.0536   1  10   0.0106   0.0064   0.0122   0.0061   0.0051   0.0095   0.00  220.0
2024/05/18 02:35:30.000   3655333.8616   1403901.0638   5018038.0555   1  10   0.0105   0.0067   0.0123   0.0060   0.0049   0.0094   0.00  225.8
2024/05/18 02:36:00.000   3655333.8657   1403901.0645   5018038.0570   1  10   0.0105   0.0064   0.0121   0.0061   0.0049   0.0095   0.00  227.1
2024/05/18 02:36:30.000   3655333.8618   1403901.0622   5018038.0569   1  10   0.0105   0.0066   0.0121   0.0061   0.0051   0.0094   0.00  232.3
2024/05/18 02:37:00.000   3655333.8668   1403901.0636   5018038.0666   1  10   0.0105   0.0065   0.0120   0.0062   0.0050   0.0093   0.00  232.6
2024/05/18 02:37:30.000   3655333.8682   1403901.0658   5018038.0661   1  10   0.0105   0.0065   0.0120   0.0062   0.0050   0.0093   0.00  232.8
2024/05/18 02:38:00.000   3655333.8591   1403901.0621   5018038.0535   1  10   0.0104   0.0066   0.0119   0.0062   0.0049   0.0093   0.00  233.8
2024/05/18 02:38:30.000   3655333.8641   1403901.0637   5018038.0568   1  10   0.0104   0.0065   0.0120   0.0062   0.0050   0.0092   0.00  232.6
2024/05/18 02:39:00.000   3655333.8657   1403901.0640   5018038.0594   1  10   0.0104   0.0065   0.0120   0.0063   0.0051   0.0091   0.00  234.5
2024/05/18 02:39:30.000   3655333.8663   1403901.0651   5018038.0590   1  10   0.0104   0.0066   0.0119   0.0062   0.0049   0.0091   0.00  235.7
2024/05/18 02:40:00.000   3655333.8665   1403901.0664   5018038.0638   1  10   0.0104   0.0068   0.0119   0.0061   0.0047   0.0091   0.00  237.8
2024/05/18 02:40:30.000   3655333.8604   1403901.0647   5018038.0562   1  10   0.0104   0.0067   0.0118   0.0063   0.0048   0.0090   0.00  240.8
2024/05/18 02:41:00.000   3655333.8575   1403901.0668   5018038.0526   1  10   0.0105   0.0070   0.0118   0.0061   0.0047   0.0090   0.00  236.8
2024/05/18 02:41:30.000   3655333.8651   1403901.0669   5018038.0611   1  10   0.0105   0.0067   0.0117   0.0064   0.0046   0.0090   0.00  236.2
2024/05/18 02:42:00.000   3655333.8643   1403901.0627   5018038.0609   1  10   0.0104   0.0067   0.0117   0.0063   0.0048   0.0090   0.00  235.7
2024/05/18 02:42:30.000   3655333.8690   1403901.0624   5018038.0632   1  10   0.0104   0.0068   0.0116   0.0063   0.0046   0.0089   0.00  239.9
2024/05/18 02:43:00.000   3655333.8668   1403901.0624   5018038.0592   1  10   0.0104   0.0070   0.0117   0.0062   0.0045   0.0089   0.00  247.9
2024/05/18 02:43:30.000   3655333.8668   1403901.0604   5018038.0544   1  10   0.0104   0.0068   0.0116   0.0064   0.0047   0.0089   0.00  253.1
2024/05/18 02:44:00.000   3655333.8693   1403901.0620   5018038.0523   1  10   0.0104   0.0070   0.0117   0.0063   0.0046   0.0088   0.00  255.7
2024/05/18 02:44:30.000   3655333.8690   1403901.0633   5018038.0515   1  10   0.0105   0.0071   0.0117   0.0063   0.0044   0.0088   0.00  250.7
2024/05/18 02:45:00.000   3655333.8688   1403901.0644   5018038.0523   1  10   0.0104   0.0070   0.0115   0.0063   0.0044   0.0087   0.00  246.8
2024/05/18 02:45:30.000   3655333.8662   1403901.0600   5018038.0463   1  10   0.0103   0.0069   0.0116   0.0065   0.0046   0.0087   0.00  244.1
2024/05/18 02:46:00.000   3655333.8676   1403901.0603   5018038.0449   1  10   0.0104   0.0072   0.0115   0.0064   0.0045   0.0086   0.00  243.6
2024/05/18 02:46:30.000   3655333.8667   1403901.0593   5018038.0478   1  10   0.0104   0.0071   0.0115   0.0064   0.0044   0.0086   0.00  243.5
2024/05/18 02:47:00.000   3655333.8688   1403901.0589   5018038.0465   1  10   0.0104   0.0071   0.0114   0.0065   0.0045   0.0086   0.00  248.6
2024/05/18 02:47:30.000   3655333.8594   1403901.0592   5018038.0440   1  10   0.0104   0.0072   0.0114   0.0065   0.0041   0.0086   0.00  251.5
2024/05/18 02:48:00.000   3655333.8621   1403901.0593   5018038.0423   1  10   0.0104   0.0071   0.0114   0.0066   0.0044   0.0085   0.00  261.7
2024/05/18 02:48:30.000   3655333.8559   1403901.0564   5018038.0405   1  10   0.0103   0.0071   0.0113   0.0066   0.0045   0.0085   0.00  269.1
2024/05/18 02:49:00.000   3655333.8563   1403901.0621   5018038.0422   1  10   0.0104   0.0072   0.0114   0.0066   0.0044   0.0085   0.00  269.3
2024/05/18 02:49:30.000   3655333.8525   1403901.0584   5018038.0381   1  10   0.0103   0.0072   0.0114   0.0067   0.0044   0.0084   0.00  274.5
2024/05/18 02:50:00.000   3655333.8600   1403901.0600   5018038.0453   1  10   0.0104   0.0073   0.0113   0.0066   0.0044   0.0084   0.00  279.9
2024/05/18 02:50:30.000   3655333.8646   1403901.0573   5018038.0527   1  10   0.0104   0.0074   0.0113   0.0066   0.0043   0.0084   0.00  283.4
2024/05/18 02:51:00.000   3655333.8747   1403901.0648   5018038.0555   1  10   0.0103   0.0074   0.0113   0.0067   0.0042   0.0083   0.00  289.6
2024/05/18 02:51:30.000   3655333.8709   1403901.0595   5018038.0486   1  10   0.0104   0.0074   0.0113   0.0068   0.0042   0.0082   0.00    3.7
2024/05/18 02:52:00.000   3655333.8640   1403901.0589   5018038.0501   1  10   0.0104   0.0074   0.0113   0.0068   0.0040   0.0082   0.00    3.7
2024/05/18 02:52:30.000   3655333.8605   1403901.0493   5018038.0482   2  10   0.0118   0.0085   0.0121   0.0068   0.0036   0.0094   0.00    2.3
2024/05/18 02:53:00.000   3655333.8691   1403901.0647   5018038.0478   1  10   0.0103   0.0074   0.0112   0.0069   0.0043   0.0082   0.00    3.3
2024/05/18 02:53:30.000   3655333.8605   1403901.0601   5018038.0420   1  10   0.0104   0.0076   0.0112   0.0069   0.0040   0.0082   0.00    6.0
2024/05/18 02:54:00.000   3655333.8645   1403901.0584   5018038.0434   1   9   0.0109   0.0082   0.0115   0.0076   0.0051   0.0086   0.00    8.5
2024/05/18 02:54:30.000   3655333.8647   1403901.0609   5018038.0441   1   9   0.0108   0.0084   0.0115   0.0075   0.0049   0.0086   0.00   10.4
2024/05/18 02:55:00.000   3655333.8668   1403901.0613   5018038.0500   1   9   0.0109   0.0084   0.0115   0.0076   0.0049   0.0085   0.00   10.8
2024/05/18 02:55:30.000   3655333.8575   1403901.0599   5018038.0445   1   9   0.0109   0.0084   0.0114   0.0075   0.0048   0.0085   0.00   14.0
2024/05/18 02:56:00.000   3655333.8615   1403901.0607   5018038.0512   1   9   0.0108   0.0083   0.0115   0.0077   0.0047   0.0085   0.00   15.2
2024/05/18 02:56:30.000   3655333.8674   1403901.0573   5018038.0596   1   9   0.0109   0.0085   0.0114   0.0076   0.0047   0.0084   0.00   17.3
2024/05/18 02:57:00.000   3655333.8673   1403901.0557   5018038.0532   1   9   0.0109   0.0084   0.0115   0.0077   0.0046   0.0084   0.00   19.1
2024/05/18 02:57:30.000   3655333.8625   1403901.0567   5018038.0570   1   9   0.0108   0.0086   0.0115   0.0077   0.0046   0.0083   0.00   20.1
2024/05/18 02:58:00.000   3655333.8614   1403901.0603   5018038.0519   1   8   0.0117   0.0086   0.0119   0.0079   0.0048   0.0091   0.00  196.7
2024/05/18 02:58:30.000   3655333.8601   1403901.0591   5018038.0515   1   8   0.0116   0.0086   0.0118   0.0080   0.0049   0.0090   0.00  191.1
2024/05/18 02:59:00.000   3655333.8634   1403901.0573   5018038.0573   1   8   0.0115   0.0085   0.0119   0.0081   0.0049   0.0089   0.00  186.6
2024/05/18 02:59:30.000   3655333.8683   1403901.0577   5018038.0550   1   8   0.0115   0.0086   0.0119   0.0081   0.0047   0.0089   0.00  182.9
2024/05/18 03:00:00.000   3655333.8717   1403901.0579   5018038.0578   1   8   0.0115   0.0087   0.0118   0.0081   0.0047   0.0088   0.00  181.7
2024/05/18 03:00:30.000   3655333.8713   1403901.0569   5018038.0592   1   8   0.0115   0.0087   0.0118   0.0081   0.0047   0.0088   0.00  177.9
2024/05/18 03:01:00.000   3655333.8733   1403901.0618   5018038.0627   1   8   0.0115   0.0088   0.0119   0.0080   0.0046   0.0087   0.00  177.6
2024/05/18 03:01:30.000   3655333.8742   1403901.0608   5018038.0567   1   8   0.0115   0.0089   0.0118   0.0080   0.0044   0.0087   0.00  186.9
2024/05/18 03:02:00.000   3655333.8640   1403901.0527   5018038.0579   2   9   0.0118   0.0095   0.0120   0.0080   0.0039   0.0089   0.00    2.1
2024/05/18 03:02:30.000   3655333.8649   1403901.0498   5018038.0598   2   9   0.0118   0.0096   0.0121   0.0080   0.0038   0.0088   0.00    2.4
2024/05/18 03:03:00.000   3655333.8604   1403901.0483   5018038.0620   2   9   0.0118   0.0097   0.0121   0.0079   0.0036   0.0087   0.00    2.1
2024/05/18 03:03:30.000   3655333.8639   1403901.0635   5018038.0527   1   9   0.0100   0.0078   0.0116   0.0066   0.0032   0.0079   0.00    2.7
2024/05/18 03:04:00.000   3655333.8675   1403901.0676   5018038.0572   1   9   0.0100   0.0078   0.0117   0.0066   0.0029   0.0078   0.00    4.1
2024/05/18 03:04:30.000   3655333.8664   1403901.0658   5018038.0498   1   9   0.0100   0.0079   0.0117   0.0065   0.0027   0.0078   0.00    5.7
2024/05/18 03:05:00.000   3655333.8713   1403901.0673   5018038.0502   1  10   0.0098   0.0076   0.0114   0.0062   0.0016   0.0074   0.00    2.6
2024/05/18 03:05:30.000   3655333.8678   1403901.0650   5018038.0523   1  10   0.0098   0.0075   0.0114   0.0063   0.0015   0.0073   0.00    4.4
2024/05/18 03:06:00.000   3655333.8654   1403901.0587   5018038.0508   1  10   0.0097   0.0076   0.0114   0.0062   0.0012   0.0073   0.00    6.2
2024/05/18 03:06:30.000   3655333.8673   1403901.0630   5018038.0506   1  10   0.0097   0.0076   0.0115   0.0061  -0.0012   0.0072   0.00    7.9
2024/05/18 03:07:00.000   3655333.8757   1403901.0670   5018038.0557   1  10   0.0095   0.0075   0.0115   0.0062   0.0005   0.0071   0.00    9.8
2024/05/18 03:07:30.000   3655333.8690   1403901.0662   5018038.0501   1  10   0.0095   0.0076   0.0115   0.0061  -0.0011   0.0071   0.00   11.7
2024/05/18 03:08:00.000   3655333.8726   1403901.0674   5018038.0485   1  10   0.0095   0.0076   0.0115   0.0061  -0.0008   0.0070   0.00   13.9
2024/05/18 03:08:30.000   3655333.8793   1403901.0724   5018038.0483   1  10   0.0095   0.0075   0.0115   0.0060  -0.0013   0.0071   0.00   16.6
2024/05/18 03:09:00.000   3655333.8787   1403901.0751   5018038.0486   1  10   0.0095   0.0076   0.0115   0.0060  -0.0014   0.0070   0.00   19.7
2024/05/18 03:09:30.000   3655333.8734   1403901.0739   5018038.0508   1  10   0.0095   0.0076   0.0116   0.0060  -0.0018   0.0069   0.00   21.9
2024/05/18 03:10:00.000   3655333.8746   1403901.0703   5018038.0506   1  10   0.0094   0.0076   0.0116   0.0059  -0.0025   0.0069   0.00   24.4
2024/05/18 03:10:30.000   3655333.8812   1403901.0706   5018038.0545   1  10   0.0093   0.0075   0.0116   0.0060  -0.0021   0.0068   0.00   26.4
2024/05/18 03:11:00.000   3655333.8818   1403901.0705   5018038.0595   1  10   0.0094   0.0077   0.0117   0.0060  -0.0022   0.0068   0.00   28.2
2024/05/18 03:11:30.000   3655333.8773   1403901.0721   5018038.0596   1  10   0.0094   0.0077   0.0117   0.0057  -0.0025   0.0067   0.00   29.2
2024/05/18 03:12:00.000   3655333.8744   1403901.0682   5018038.0622   1  10   0.0093   0.0076   0.0118   0.0059  -0.0025   0.0067   0.00    2.9
2024/05/18 03:12:30.000   3655333.8708   1403901.0621   5018038.0669   1  10   0.0092   0.0076   0.0118   0.0060  -0.0026   0.0066   0.00    2.9
2024/05/18 03:13:00.000   3655333.8674   1403901.0661   5018038.0585   1  10   0.0093   0.0076   0.0118   0.0058  -0.0027   0.0066   0.00    4.4
2024/05/18 03:13:30.000   3655333.8664   1403901.0665   5018038.0546   1  10   0.0092   0.0075   0.0119   0.0058  -0.0029   0.0066   0.00    5.6
2024/05/18 03:14:00.000   3655333.8662   1403901.0549   5018038.0581   2  10   0.0097   0.0086   0.0136   0.0059  -0.0048   0.0069   0.00    2.4
2024/05/18 03:14:30.000   3655333.8669   1403901.0631   5018038.0499   1   9   0.0090   0.0078   0.0133   0.0058  -0.0044   0.0065   0.00   38.2
2024/05/18 03:15:00.000   3655333.8609   1403901.0560   5018038.0550   1   9   0.0091   0.0077   0.0133   0.0057  -0.0045   0.0065   0.00   38.3
2024/05/18 03:15:30.000   3655333.8591   1403901.0589   5018038.0564   1   9   0.0092   0.0078   0.0134   0.0057  -0.0045   0.0064   0.00   38.3
2024/05/18 03:16:00.000   3655333.8637   1403901.0605   5018038.0506   1   9   0.0091   0.0077   0.0134   0.0056  -0.0045   0.0064   0.00   38.6
2024/05/18 03:16:30.000   3655333.8637   1403901.0639   5018038.0473   1   9   0.0089   0.0077   0.0135   0.0058  -0.0046   0.0064   0.00   39.8
2024/05/18 03:17:00.000   3655333.8647   1403901.0643   5018038.0504   1   9   0.0090   0.0078   0.0135   0.0057  -0.0047   0.0063   0.00   40.4
2024/05/18 03:17:30.000   3655333.8648   1403901.0511   5018038.0541   2  10   0.0096   0.0087   0.0138   0.0057  -0.0050   0.0066   0.00    2.0
2024/05/18 03:18:00.000   3655333.8697   1403901.0635   5018038.0515   1  10   0.0089   0.0075   0.0124   0.0057  -0.0035   0.0059   0.00    3.0
2024/05/18 03:18:30.000   3655333.8702   1403901.0698   5018038.0499   1  10   0.0088   0.0075   0.0124   0.0058  -0.0035   0.0058   0.00    4.1
2024/05/18 03:19:00.000   3655333.8663   1403901.0631   5018038.0579   1  10   0.0088   0.0074   0.0124   0.0058  -0.0035   0.0058   0.00    5.2
2024/05/18 03:19:30.000   3655333.8645   1403901.0600   5018038.0510   1  10   0.0088   0.0075   0.0124   0.0057  -0.0036   0.0058   0.00    6.5
2024/05/18 03:20:00.000   3655333.8668   1403901.0647   5018038.0528   1  10   0.0089   0.0074   0.0124   0.0058  -0.0035   0.0058   0.00    7.5
2024/05/18 03:20:30.000   3655333.8697   1403901.0626   5018038.0529   1  10   0.0088   0.0075   0.0125   0.0057  -0.0034   0.0057   0.00    8.5
2024/05/18 03:21:00.000   3655333.8680   1403901.0593   5018038.0626   1  10   0.0087   0.0074   0.0125   0.0056  -0.0036   0.0057   0.00    9.7
2024/05/18 03:21:30.000   3655333.8664   1403901.0586   5018038.0647   1  10   0.0087   0.0074   0.0125   0.0057  -0.0036   0.0056   0.00   10.7
2024/05/18 03:22:00.000   3655333.8654   1403901.0561   5018038.0736   1  10   0.0087   0.0074   0.0125   0.0056  -0.0036   0.0056   0.00   11.2
2024/05/18 03:22:30.000   3655333.8613   1403901.0558   5018038.0705   1  10   0.0087   0.0073   0.0125   0.0056  -0.0035   0.0056   0.00   11.8
