% program   : RTKPOST ver.2.4.3 b34
% inp file  : C:\Users\adria\Desktop\projekt3\WUTR00POL_R_20241390000_01D_30S_MO.rnx
% inp file  : C:\Users\adria\Desktop\systemy-nawigacji-satelitarnej\projekt3\asg\MIMA1390.24o
% inp file  : C:\Users\adria\Desktop\systemy-nawigacji-satelitarnej\projekt3\asg\MIMA1390.24n
% obs start : 2024/05/18 00:00:00.0 GPST (week2314 518400.0s)
% obs end   : 2024/05/18 23:59:30.0 GPST (week2314 604770.0s)
% pos mode  : Kinematic
% freqs     : L1+2
% solution  : Forward
% elev mask : 10.0 deg
% dynamics  : off
% tidecorr  : off
% ionos opt : OFF
% tropo opt : OFF
% ephemeris : Broadcast
% navi sys  : GPS
% amb res   : Continuous
% val thres : 2.5
% antenna1  :                       ( 0.0000  0.0000  0.1010)
% antenna2  :                       ( 0.0000  0.0000  0.1300)
% ref pos   :  3644974.5486   1440149.8909   5015356.6564
%
% (x/y/z-ecef=WGS84,Q=1:fix,2:float,3:sbas,4:dgps,5:single,6:ppp,ns=# of satellites)
%  GPST                      x-ecef(m)      y-ecef(m)      z-ecef(m)   Q  ns   sdx(m)   sdy(m)   sdz(m)  sdxy(m)  sdyz(m)  sdzx(m) age(s)  ratio
2024/05/18 00:00:00.000   3655334.4461   1403901.1792   5018038.0955   2   9   0.9490   0.6142   1.2025   0.4694   0.4213   0.8195   0.00    1.7
2024/05/18 00:00:30.000   3655334.1731   1403901.0218   5018037.9893   2   9   0.6500   0.4332   0.7547   0.3230   0.2792   0.5168   0.00    1.3
2024/05/18 00:01:00.000   3655333.8068   1403900.6960   5018037.6032   2   9   0.5090   0.3501   0.5278   0.2530   0.2109   0.3642   0.00    1.0
2024/05/18 00:01:30.000   3655333.7367   1403900.6349   5018037.7455   2   9   0.4239   0.2988   0.3906   0.2089   0.1701   0.2720   0.00    1.0
2024/05/18 00:02:00.000   3655333.8943   1403900.8404   5018037.6707   2   9   0.3660   0.2624   0.3016   0.1770   0.1431   0.2121   0.00    1.3
2024/05/18 00:02:30.000   3655334.0538   1403901.0653   5018037.5658   2   9   0.3233   0.2346   0.2410   0.1520   0.1240   0.1710   0.00    1.5
2024/05/18 00:03:00.000   3655334.2181   1403901.2756   5018037.6191   2   9   0.2901   0.2122   0.1978   0.1312   0.1095   0.1414   0.00    1.2
2024/05/18 00:03:30.000   3655334.1906   1403901.2635   5018037.9621   2   9   0.2632   0.1936   0.1661   0.1135   0.0981   0.1192   0.00    1.1
2024/05/18 00:04:00.000   3655333.9088   1403900.9456   5018038.2152   2   9   0.2407   0.1779   0.1420   0.0979   0.0888   0.1021   0.00    1.0
2024/05/18 00:04:30.000   3655333.8517   1403900.9035   5018038.2835   2   9   0.2217   0.1643   0.1232   0.0840   0.0810   0.0884   0.00    1.3
2024/05/18 00:05:00.000   3655333.9636   1403901.1247   5018038.2326   2   9   0.2053   0.1525   0.1083   0.0713   0.0745   0.0773   0.00    1.3
2024/05/18 00:05:30.000   3655333.9974   1403901.2121   5018038.1952   2   9   0.1909   0.1422   0.0963   0.0596   0.0688   0.0681   0.00    1.3
2024/05/18 00:06:00.000   3655333.9638   1403901.1788   5018038.1586   2   9   0.1783   0.1330   0.0863   0.0486   0.0639   0.0603   0.00    1.3
2024/05/18 00:06:30.000   3655333.8602   1403901.0193   5018038.1310   2   9   0.1672   0.1249   0.0781   0.0378   0.0595   0.0537   0.00    1.3
2024/05/18 00:07:00.000   3655333.8990   1403901.0321   5018038.1388   2   9   0.1580   0.1198   0.0711   0.0326   0.0558   0.0481   0.00    1.1
2024/05/18 00:07:30.000   3655333.9197   1403901.0432   5018038.1263   2   9   0.1491   0.1148   0.0652   0.0246   0.0519   0.0429   0.00    1.1
2024/05/18 00:08:00.000   3655333.9299   1403901.0821   5018038.1120   2   9   0.1411   0.1101   0.0601   0.0150   0.0487   0.0384   0.00    1.2
2024/05/18 00:08:30.000   3655333.9508   1403901.1421   5018038.0981   2   9   0.1338   0.1057   0.0556  -0.0098   0.0458   0.0346   0.00    1.2
2024/05/18 00:09:00.000   3655333.9720   1403901.2009   5018038.0966   2   9   0.1272   0.1016   0.0518  -0.0191   0.0433   0.0312   0.00    1.2
2024/05/18 00:09:30.000   3655333.9435   1403901.2205   5018038.1015   2   9   0.1210   0.0977   0.0484  -0.0244   0.0411   0.0283   0.00    1.1
2024/05/18 00:10:00.000   3655333.9447   1403901.2628   5018038.1121   2   9   0.1157   0.0943   0.0454  -0.0268   0.0393   0.0261   0.00    1.2
2024/05/18 00:10:30.000   3655333.9804   1403901.2882   5018038.1079   2   9   0.1104   0.0911   0.0427  -0.0295   0.0374   0.0236   0.00    1.5
2024/05/18 00:11:00.000   3655333.9987   1403901.3078   5018038.0900   2   9   0.1056   0.0880   0.0403  -0.0314   0.0358   0.0215   0.00    1.7
2024/05/18 00:11:30.000   3655334.0074   1403901.3111   5018038.0893   2   8   0.1015   0.0851   0.0383  -0.0327   0.0344   0.0200   0.00    1.5
2024/05/18 00:12:00.000   3655333.9865   1403901.2992   5018038.0991   2   9   0.0974   0.0824   0.0363  -0.0337   0.0330   0.0184   0.00    1.0
2024/05/18 00:12:30.000   3655333.9831   1403901.3026   5018038.1079   2   9   0.0935   0.0799   0.0345  -0.0346   0.0317   0.0166   0.00    1.1
2024/05/18 00:13:00.000   3655333.9870   1403901.3154   5018038.1031   2   9   0.0899   0.0774   0.0330  -0.0352   0.0304   0.0151   0.00    1.5
2024/05/18 00:13:30.000   3655333.9613   1403901.3261   5018038.1021   2   9   0.0865   0.0751   0.0315  -0.0357   0.0293   0.0138   0.00    1.6
2024/05/18 00:14:00.000   3655333.9733   1403901.3162   5018038.1040   2  10   0.0834   0.0730   0.0302  -0.0361   0.0283   0.0126   0.00    1.2
2024/05/18 00:14:30.000   3655333.9519   1403901.3061   5018038.0869   2  10   0.0805   0.0709   0.0289  -0.0362   0.0274   0.0114   0.00    1.4
2024/05/18 00:15:00.000   3655333.9661   1403901.2933   5018038.0861   2  10   0.0777   0.0689   0.0277  -0.0363   0.0265   0.0104   0.00    1.6
2024/05/18 00:15:30.000   3655334.0262   1403901.3230   5018038.1046   2  10   0.0752   0.0670   0.0267  -0.0363   0.0257   0.0096   0.00    1.7
2024/05/18 00:16:00.000   3655333.9972   1403901.3170   5018038.0985   2  10   0.0728   0.0652   0.0258  -0.0363   0.0248   0.0088   0.00    1.9
2024/05/18 00:16:30.000   3655334.0140   1403901.3248   5018038.0840   2  10   0.0705   0.0635   0.0249  -0.0362   0.0241   0.0080   0.00    2.1
2024/05/18 00:17:00.000   3655334.0489   1403901.3376   5018038.0930   2   9   0.0688   0.0622   0.0252  -0.0367   0.0224   0.0097   0.00    1.1
2024/05/18 00:17:30.000   3655334.0216   1403901.3227   5018038.0778   2  10   0.0670   0.0610   0.0236  -0.0371   0.0221   0.0086   0.00    1.2
2024/05/18 00:18:00.000   3655334.0224   1403901.3088   5018038.0706   2  10   0.0654   0.0599   0.0229  -0.0374   0.0215   0.0079   0.00    1.3
2024/05/18 00:18:30.000   3655334.0654   1403901.3205   5018038.0805   2  11   0.0638   0.0588   0.0226  -0.0376   0.0210   0.0075   0.00    1.1
2024/05/18 00:19:00.000   3655334.0587   1403901.3074   5018038.0744   2  10   0.0623   0.0577   0.0220  -0.0379   0.0204   0.0067   0.00    1.2
2024/05/18 00:19:30.000   3655334.0842   1403901.3148   5018038.0756   2  10   0.0608   0.0567   0.0214  -0.0380   0.0199   0.0060   0.00    1.1
2024/05/18 00:20:00.000   3655334.0877   1403901.3094   5018038.0706   2  10   0.0595   0.0557   0.0209  -0.0380   0.0195   0.0053   0.00    1.0
2024/05/18 00:20:30.000   3655334.0519   1403901.2710   5018038.0593   2  10   0.0582   0.0547   0.0204  -0.0381   0.0190   0.0046   0.00    1.1
2024/05/18 00:21:00.000   3655334.0848   1403901.2789   5018038.0761   2  10   0.0572   0.0540   0.0201  -0.0377   0.0188   0.0050   0.00    1.1
2024/05/18 00:21:30.000   3655334.1012   1403901.2782   5018038.0773   2  10   0.0560   0.0532   0.0196  -0.0377   0.0183   0.0040   0.00    1.3
2024/05/18 00:22:00.000   3655334.1108   1403901.2856   5018038.0681   2  10   0.0550   0.0525   0.0192  -0.0375   0.0180   0.0038   0.00    1.0
2024/05/18 00:22:30.000   3655334.0944   1403901.2673   5018038.0541   2  10   0.0538   0.0518   0.0188  -0.0374   0.0176   0.0028   0.00    1.0
2024/05/18 00:23:00.000   3655334.1027   1403901.2684   5018038.0659   2  10   0.0529   0.0511   0.0185  -0.0373   0.0173   0.0027   0.00    1.1
2024/05/18 00:23:30.000   3655334.1105   1403901.2725   5018038.0681   2   9   0.0519   0.0504   0.0182  -0.0371   0.0170   0.0020   0.00    1.8
2024/05/18 00:24:00.000   3655334.1137   1403901.2735   5018038.0675   2   9   0.0510   0.0497   0.0179  -0.0369   0.0167   0.0011   0.00    1.9
2024/05/18 00:24:30.000   3655334.1085   1403901.2708   5018038.0720   2  10   0.0501   0.0491   0.0176  -0.0367   0.0164  -0.0010   0.00    1.1
2024/05/18 00:25:00.000   3655334.0818   1403901.2489   5018038.0656   2  10   0.0492   0.0484   0.0172  -0.0366   0.0159  -0.0025   0.00    1.2
2024/05/18 00:25:30.000   3655334.0579   1403901.2274   5018038.0571   2  10   0.0484   0.0478   0.0168  -0.0364   0.0156  -0.0032   0.00    1.4
2024/05/18 00:26:00.000   3655334.0776   1403901.2330   5018038.0607   2  10   0.0475   0.0472   0.0166  -0.0362   0.0153  -0.0035   0.00    1.5
2024/05/18 00:26:30.000   3655334.0765   1403901.2290   5018038.0664   2  10   0.0467   0.0466   0.0163  -0.0359   0.0151  -0.0039   0.00    1.6
2024/05/18 00:27:00.000   3655334.0968   1403901.2288   5018038.0711   2  10   0.0460   0.0460   0.0161  -0.0357   0.0148  -0.0040   0.00    1.7
2024/05/18 00:27:30.000   3655334.0812   1403901.2217   5018038.0690   2  10   0.0452   0.0455   0.0159  -0.0354   0.0145  -0.0042   0.00    1.8
2024/05/18 00:28:00.000   3655334.0571   1403901.2101   5018038.0636   2  10   0.0445   0.0449   0.0156  -0.0352   0.0143  -0.0044   0.00    1.8
2024/05/18 00:28:30.000   3655334.0677   1403901.2246   5018038.0660   2  10   0.0438   0.0444   0.0155  -0.0349   0.0141  -0.0045   0.00    2.0
2024/05/18 00:29:00.000   3655334.0911   1403901.2413   5018038.0688   2  10   0.0431   0.0438   0.0153  -0.0346   0.0139  -0.0046   0.00    2.1
2024/05/18 00:29:30.000   3655334.0813   1403901.2567   5018038.0616   2  10   0.0424   0.0433   0.0151  -0.0343   0.0137  -0.0047   0.00    2.2
2024/05/18 00:30:00.000   3655334.0780   1403901.2588   5018038.0620   2  10   0.0418   0.0428   0.0149  -0.0340   0.0134  -0.0048   0.00    2.3
2024/05/18 00:30:30.000   3655334.0644   1403901.2502   5018038.0653   2  10   0.0411   0.0422   0.0148  -0.0337   0.0132  -0.0048   0.00    2.4
2024/05/18 00:31:00.000   3655334.0592   1403901.2355   5018038.0617   2  10   0.0405   0.0418   0.0147  -0.0334   0.0130  -0.0048   0.00    2.5
2024/05/18 00:31:30.000   3655333.9039   1403901.0990   5018038.0562   1  10   0.0103   0.0060   0.0111   0.0045   0.0031   0.0051   0.00    2.5
2024/05/18 00:32:00.000   3655333.8733   1403901.0820   5018038.0576   1  10   0.0103   0.0061   0.0111   0.0043   0.0029   0.0051   0.00    2.5
2024/05/18 00:32:30.000   3655334.0444   1403901.2177   5018038.0719   2  10   0.0387   0.0403   0.0143  -0.0325   0.0124  -0.0047   0.00    2.5
2024/05/18 00:33:00.000   3655334.0407   1403901.2169   5018038.0665   2  10   0.0381   0.0398   0.0141  -0.0321   0.0123  -0.0049   0.00    2.5
2024/05/18 00:33:30.000   3655334.0266   1403901.2023   5018038.0606   2  10   0.0375   0.0393   0.0140  -0.0318   0.0121  -0.0048   0.00    2.5
2024/05/18 00:34:00.000   3655334.0226   1403901.1891   5018038.0605   2  10   0.0370   0.0389   0.0139  -0.0314   0.0119  -0.0047   0.00    2.4
2024/05/18 00:34:30.000   3655334.0156   1403901.1644   5018038.0588   2  10   0.0364   0.0384   0.0138  -0.0311   0.0118  -0.0047   0.00    2.4
2024/05/18 00:35:00.000   3655334.0401   1403901.1604   5018038.0558   2  10   0.0359   0.0380   0.0137  -0.0307   0.0115  -0.0046   0.00    2.4
2024/05/18 00:35:30.000   3655334.0459   1403901.1622   5018038.0536   2  10   0.0353   0.0375   0.0136  -0.0304   0.0114  -0.0046   0.00    2.4
2024/05/18 00:36:00.000   3655334.0372   1403901.1515   5018038.0588   2  10   0.0348   0.0370   0.0135  -0.0300   0.0113  -0.0046   0.00    2.4
2024/05/18 00:36:30.000   3655334.0447   1403901.1468   5018038.0564   2  10   0.0343   0.0365   0.0134  -0.0296   0.0111  -0.0045   0.00    2.4
2024/05/18 00:37:00.000   3655334.0455   1403901.1391   5018038.0666   2  10   0.0337   0.0361   0.0133  -0.0293   0.0109  -0.0044   0.00    2.4
2024/05/18 00:37:30.000   3655334.0431   1403901.1379   5018038.0660   2  10   0.0332   0.0357   0.0133  -0.0289   0.0108  -0.0043   0.00    2.5
2024/05/18 00:38:00.000   3655333.8853   1403901.0811   5018038.0565   1  10   0.0103   0.0059   0.0111   0.0044   0.0030   0.0045   0.00    2.5
2024/05/18 00:38:30.000   3655333.8865   1403901.0802   5018038.0611   1  10   0.0104   0.0060   0.0110   0.0044   0.0028   0.0044   0.00    2.6
2024/05/18 00:39:00.000   3655333.8701   1403901.0752   5018038.0545   1  10   0.0103   0.0059   0.0110   0.0043   0.0030   0.0044   0.00    2.6
2024/05/18 00:39:30.000   3655333.8721   1403901.0778   5018038.0545   1  10   0.0103   0.0059   0.0110   0.0044   0.0029   0.0043   0.00    2.7
2024/05/18 00:40:00.000   3655333.8790   1403901.0833   5018038.0465   1  10   0.0104   0.0058   0.0110   0.0044   0.0028   0.0044   0.00    2.7
2024/05/18 00:40:30.000   3655333.8811   1403901.0820   5018038.0561   1  10   0.0103   0.0057   0.0110   0.0044   0.0029   0.0043   0.00    2.8
2024/05/18 00:41:00.000   3655334.0321   1403901.0940   5018038.0618   2  10   0.0299   0.0327   0.0132  -0.0262   0.0099  -0.0029   0.00    1.0
2024/05/18 00:41:30.000   3655333.9009   1403901.0815   5018038.0518   1   9   0.0110   0.0058   0.0113   0.0042   0.0028   0.0051   0.00    3.0
2024/05/18 00:42:00.000   3655333.8888   1403901.0718   5018038.0527   1   9   0.0109   0.0059   0.0113   0.0042   0.0025   0.0051   0.00    3.1
2024/05/18 00:42:30.000   3655333.9030   1403901.0804   5018038.0539   1   9   0.0109   0.0057   0.0113   0.0044   0.0025   0.0050   0.00    3.2
2024/05/18 00:43:00.000   3655333.9067   1403901.0802   5018038.0551   1   9   0.0109   0.0057   0.0113   0.0041   0.0026   0.0049   0.00    3.2
2024/05/18 00:43:30.000   3655333.9149   1403901.0826   5018038.0654   1   9   0.0109   0.0059   0.0113   0.0043   0.0026   0.0049   0.00    3.3
2024/05/18 00:44:00.000   3655333.8895   1403901.0726   5018038.0614   1   9   0.0109   0.0058   0.0113   0.0042   0.0027   0.0048   0.00    3.3
2024/05/18 00:44:30.000   3655333.8928   1403901.0730   5018038.0630   1   9   0.0108   0.0058   0.0114   0.0042   0.0029   0.0047   0.00    3.4
2024/05/18 00:45:00.000   3655333.8772   1403901.0657   5018038.0574   1   9   0.0108   0.0058   0.0113   0.0043   0.0027   0.0047   0.00    3.5
2024/05/18 00:45:30.000   3655333.8674   1403901.0698   5018038.0588   1   9   0.0108   0.0057   0.0114   0.0043   0.0027   0.0046   0.00    3.7
2024/05/18 00:46:00.000   3655333.8698   1403901.0696   5018038.0594   1   9   0.0108   0.0057   0.0114   0.0042   0.0027   0.0046   0.00    3.8
2024/05/18 00:46:30.000   3655333.8674   1403901.0724   5018038.0618   1   9   0.0108   0.0055   0.0114   0.0043   0.0027   0.0046   0.00    3.9
2024/05/18 00:47:00.000   3655333.8692   1403901.0752   5018038.0639   1   9   0.0108   0.0057   0.0114   0.0042   0.0026   0.0045   0.00    4.0
2024/05/18 00:47:30.000   3655333.8840   1403901.0799   5018038.0569   1   9   0.0108   0.0057   0.0114   0.0041   0.0027   0.0044   0.00    4.1
2024/05/18 00:48:00.000   3655333.8860   1403901.0753   5018038.0597   1   9   0.0108   0.0058   0.0114   0.0041   0.0028   0.0044   0.00    4.2
2024/05/18 00:48:30.000   3655333.8872   1403901.0749   5018038.0551   1   9   0.0108   0.0057   0.0114   0.0042   0.0027   0.0043   0.00    4.3
2024/05/18 00:49:00.000   3655333.8668   1403901.0714   5018038.0521   1   9   0.0108   0.0057   0.0115   0.0041   0.0026   0.0043   0.00    4.4
2024/05/18 00:49:30.000   3655333.8753   1403901.0728   5018038.0583   1   9   0.0107   0.0056   0.0114   0.0042   0.0025   0.0042   0.00    4.5
2024/05/18 00:50:00.000   3655333.8602   1403901.0656   5018038.0615   1   9   0.0107   0.0056   0.0115   0.0042   0.0025   0.0042   0.00    4.5
2024/05/18 00:50:30.000   3655333.8340   1403901.0529   5018038.0554   1   9   0.0107   0.0057   0.0115   0.0043   0.0026   0.0042   0.00    4.4
2024/05/18 00:51:00.000   3655333.8298   1403901.0528   5018038.0499   1   9   0.0107   0.0057   0.0115   0.0042   0.0026   0.0041   0.00    4.3
2024/05/18 00:51:30.000   3655333.8246   1403901.0528   5018038.0505   1   9   0.0107   0.0058   0.0116   0.0042   0.0027   0.0041   0.00    4.2
2024/05/18 00:52:00.000   3655333.8561   1403901.0670   5018038.0528   1   9   0.0107   0.0056   0.0116   0.0040   0.0028   0.0041   0.00    4.2
2024/05/18 00:52:30.000   3655333.8826   1403901.0792   5018038.0561   1   9   0.0106   0.0056   0.0116   0.0043   0.0028   0.0040   0.00    4.3
2024/05/18 00:53:00.000   3655333.8563   1403901.0707   5018038.0529   1   9   0.0107   0.0057   0.0116   0.0042   0.0027   0.0040   0.00    4.3
2024/05/18 00:53:30.000   3655333.8467   1403901.0680   5018038.0455   1   9   0.0107   0.0056   0.0117   0.0041   0.0028   0.0039   0.00    4.3
2024/05/18 00:54:00.000   3655333.8512   1403901.0670   5018038.0463   1   9   0.0106   0.0057   0.0117   0.0042   0.0028   0.0039   0.00    4.3
2024/05/18 00:54:30.000   3655333.8444   1403901.0614   5018038.0498   1   9   0.0106   0.0055   0.0117   0.0042   0.0029   0.0039   0.00    4.2
2024/05/18 00:55:00.000   3655333.9621   1403901.0636   5018038.0757   2  10   0.0199   0.0225   0.0126  -0.0167   0.0068   0.0029   0.00    1.1
2024/05/18 00:55:30.000   3655333.9380   1403901.0675   5018038.0725   2  10   0.0195   0.0222   0.0123  -0.0163   0.0069   0.0030   0.00    1.1
2024/05/18 00:56:00.000   3655333.9302   1403901.0827   5018038.0685   2  10   0.0193   0.0219   0.0121  -0.0161   0.0068   0.0030   0.00    1.2
2024/05/18 00:56:30.000   3655333.9339   1403901.1086   5018038.0691   2  10   0.0190   0.0216   0.0120  -0.0157   0.0067   0.0031   0.00    1.3
2024/05/18 00:57:00.000   3655333.9179   1403901.1347   5018038.0705   2  10   0.0188   0.0213   0.0119  -0.0155   0.0066   0.0033   0.00    1.4
2024/05/18 00:57:30.000   3655333.8962   1403901.1383   5018038.0713   2  10   0.0185   0.0210   0.0119  -0.0152   0.0065   0.0033   0.00    1.5
2024/05/18 00:58:00.000   3655333.8588   1403901.1197   5018038.0711   2  10   0.0183   0.0207   0.0119  -0.0149   0.0065   0.0034   0.00    1.6
2024/05/18 00:58:30.000   3655333.8443   1403901.1120   5018038.0717   2  10   0.0180   0.0205   0.0119  -0.0146   0.0064   0.0035   0.00    1.7
2024/05/18 00:59:00.000   3655333.8475   1403901.1156   5018038.0725   2  10   0.0178   0.0202   0.0118  -0.0144   0.0063   0.0036   0.00    1.8
2024/05/18 00:59:30.000   3655333.8423   1403901.0990   5018038.0784   2  10   0.0176   0.0199   0.0118  -0.0141   0.0062   0.0037   0.00    1.8
2024/05/18 01:00:00.000   3655333.8717   1403901.1215   5018038.0812   2  10   0.0174   0.0196   0.0118  -0.0138   0.0062   0.0038   0.00    1.9
2024/05/18 01:00:30.000   3655333.8796   1403901.1368   5018038.0733   2  10   0.0172   0.0194   0.0118  -0.0136   0.0061   0.0038   0.00    2.0
2024/05/18 01:01:00.000   3655333.8848   1403901.1526   5018038.0733   2  10   0.0169   0.0191   0.0118  -0.0133   0.0061   0.0039   0.00    2.1
2024/05/18 01:01:30.000   3655333.8727   1403901.1493   5018038.0739   2  10   0.0167   0.0189   0.0118  -0.0130   0.0060   0.0040   0.00    2.2
2024/05/18 01:02:00.000   3655333.8726   1403901.1537   5018038.0752   2  10   0.0166   0.0186   0.0118  -0.0128   0.0061   0.0040   0.00    2.3
2024/05/18 01:02:30.000   3655333.8809   1403901.1631   5018038.0727   2  10   0.0164   0.0184   0.0118  -0.0126   0.0059   0.0042   0.00    2.4
2024/05/18 01:03:00.000   3655333.8559   1403901.1491   5018038.0723   2  10   0.0162   0.0181   0.0118  -0.0123   0.0059   0.0042   0.00    2.5
2024/05/18 01:03:30.000   3655333.8941   1403901.0843   5018038.0501   1  10   0.0104   0.0055   0.0109   0.0041   0.0037   0.0040   0.00    2.6
2024/05/18 01:04:00.000   3655333.9000   1403901.0853   5018038.0473   1  10   0.0103   0.0056   0.0109   0.0043   0.0036   0.0039   0.00    2.7
2024/05/18 01:04:30.000   3655333.8926   1403901.0819   5018038.0497   1  10   0.0103   0.0055   0.0110   0.0042   0.0036   0.0041   0.00    2.8
2024/05/18 01:05:00.000   3655333.8505   1403901.0640   5018038.0506   1  10   0.0103   0.0056   0.0110   0.0042   0.0037   0.0041   0.00    2.9
2024/05/18 01:05:30.000   3655333.8497   1403901.0588   5018038.0538   1  10   0.0103   0.0055   0.0110   0.0041   0.0037   0.0041   0.00    2.9
2024/05/18 01:06:00.000   3655333.8452   1403901.0532   5018038.0499   1  10   0.0102   0.0056   0.0110   0.0042   0.0036   0.0042   0.00    3.0
2024/05/18 01:06:30.000   3655333.8809   1403901.0732   5018038.0541   1  10   0.0102   0.0056   0.0110   0.0041   0.0039   0.0042   0.00    3.1
2024/05/18 01:07:00.000   3655333.8880   1403901.0741   5018038.0494   1  10   0.0102   0.0053   0.0110   0.0042   0.0038   0.0042   0.00    3.2
2024/05/18 01:07:30.000   3655333.8759   1403901.0678   5018038.0476   1  10   0.0102   0.0057   0.0111   0.0043   0.0039   0.0042   0.00    3.3
2024/05/18 01:08:00.000   3655333.9143   1403901.0899   5018038.0551   1  10   0.0102   0.0056   0.0111   0.0042   0.0039   0.0043   0.00    3.4
2024/05/18 01:08:30.000   3655333.9076   1403901.2043   5018038.0743   2  10   0.0144   0.0159   0.0136  -0.0099   0.0055   0.0049   0.00    1.1
2024/05/18 01:09:00.000   3655333.9025   1403901.2251   5018038.0776   2  10   0.0143   0.0157   0.0128  -0.0097   0.0054   0.0050   0.00    1.2
2024/05/18 01:09:30.000   3655333.8669   1403901.2092   5018038.0746   2  10   0.0142   0.0155   0.0125  -0.0095   0.0055   0.0051   0.00    1.3
2024/05/18 01:10:00.000   3655333.8572   1403901.1990   5018038.0750   2  10   0.0140   0.0153   0.0124  -0.0093   0.0054   0.0052   0.00    1.4
2024/05/18 01:10:30.000   3655333.8704   1403901.2112   5018038.0656   2  10   0.0139   0.0152   0.0123  -0.0091   0.0054   0.0052   0.00    1.5
2024/05/18 01:11:00.000   3655333.8705   1403901.2139   5018038.0763   2   9   0.0138   0.0150   0.0137  -0.0089   0.0061   0.0052   0.00    1.9
2024/05/18 01:11:30.000   3655333.8623   1403901.2130   5018038.0793   2   9   0.0137   0.0149   0.0137  -0.0087   0.0061   0.0053   0.00    2.0
2024/05/18 01:12:00.000   3655333.8549   1403901.2072   5018038.0750   2   9   0.0136   0.0148   0.0136  -0.0086   0.0061   0.0055   0.00    2.1
2024/05/18 01:12:30.000   3655333.8368   1403901.1878   5018038.0691   2   9   0.0135   0.0145   0.0136  -0.0084   0.0061   0.0056   0.00    2.2
2024/05/18 01:13:00.000   3655333.8264   1403901.1763   5018038.0683   2   9   0.0134   0.0144   0.0136  -0.0081   0.0060   0.0057   0.00    2.4
2024/05/18 01:13:30.000   3655333.8358   1403901.1667   5018038.0693   2   9   0.0133   0.0145   0.0135  -0.0079   0.0062   0.0058   0.00    2.5
2024/05/18 01:14:00.000   3655333.8448   1403901.0392   5018038.0259   1   9   0.0100   0.0056   0.0123   0.0043   0.0047   0.0047   0.00    2.6
2024/05/18 01:14:30.000   3655333.8614   1403901.0483   5018038.0276   1   9   0.0100   0.0055   0.0123   0.0042   0.0047   0.0047   0.00    2.7
2024/05/18 01:15:00.000   3655333.8364   1403901.0353   5018038.0284   1   9   0.0100   0.0055   0.0124   0.0042   0.0049   0.0048   0.00    2.8
2024/05/18 01:15:30.000   3655333.8712   1403901.0559   5018038.0408   1   9   0.0099   0.0055   0.0123   0.0042   0.0049   0.0049   0.00    3.0
2024/05/18 01:16:00.000   3655333.8998   1403901.0715   5018038.0424   1   9   0.0099   0.0056   0.0124   0.0043   0.0049   0.0050   0.00    3.1
2024/05/18 01:16:30.000   3655333.8785   1403901.0588   5018038.0389   1   9   0.0099   0.0055   0.0123   0.0043   0.0049   0.0051   0.00    3.1
2024/05/18 01:17:00.000   3655333.8595   1403901.0477   5018038.0348   1   9   0.0099   0.0057   0.0123   0.0044   0.0049   0.0052   0.00    3.2
2024/05/18 01:17:30.000   3655333.8975   1403901.0692   5018038.0429   1   9   0.0099   0.0056   0.0123   0.0043   0.0049   0.0053   0.00    3.3
2024/05/18 01:18:00.000   3655333.9152   1403901.0796   5018038.0476   1   9   0.0099   0.0056   0.0124   0.0043   0.0049   0.0053   0.00    3.4
2024/05/18 01:18:30.000   3655333.9396   1403901.0977   5018038.0561   1   9   0.0099   0.0057   0.0124   0.0045   0.0050   0.0055   0.00    3.5
2024/05/18 01:19:00.000   3655333.9258   1403901.0886   5018038.0473   1   9   0.0099   0.0056   0.0124   0.0044   0.0051   0.0055   0.00    3.6
2024/05/18 01:19:30.000   3655333.9150   1403901.0889   5018038.0519   1   9   0.0099   0.0055   0.0124   0.0044   0.0051   0.0056   0.00    3.7
2024/05/18 01:20:00.000   3655333.9146   1403901.0901   5018038.0622   1   9   0.0099   0.0055   0.0124   0.0044   0.0051   0.0057   0.00    3.8
2024/05/18 01:20:30.000   3655333.9213   1403901.0938   5018038.0709   1   9   0.0098   0.0057   0.0124   0.0045   0.0052   0.0058   0.00    3.8
2024/05/18 01:21:00.000   3655333.9084   1403901.0778   5018038.0544   1   9   0.0099   0.0055   0.0124   0.0044   0.0052   0.0058   0.00    3.9
2024/05/18 01:21:30.000   3655333.9222   1403901.0929   5018038.0633   1   9   0.0098   0.0059   0.0124   0.0045   0.0051   0.0059   0.00    4.0
2024/05/18 01:22:00.000   3655333.9098   1403901.0839   5018038.0569   1   9   0.0098   0.0057   0.0125   0.0045   0.0053   0.0060   0.00    4.0
2024/05/18 01:22:30.000   3655333.9107   1403901.0860   5018038.0519   1   9   0.0098   0.0056   0.0125   0.0046   0.0053   0.0061   0.00    4.1
2024/05/18 01:23:00.000   3655333.9157   1403901.0835   5018038.0609   1   9   0.0098   0.0056   0.0125   0.0046   0.0052   0.0062   0.00    4.1
2024/05/18 01:23:30.000   3655333.9395   1403901.0960   5018038.0696   1   9   0.0098   0.0056   0.0125   0.0046   0.0052   0.0063   0.00    4.2
2024/05/18 01:24:00.000   3655333.9508   1403901.1092   5018038.0819   1   9   0.0098   0.0056   0.0125   0.0046   0.0053   0.0064   0.00    4.3
2024/05/18 01:24:30.000   3655333.9248   1403901.0921   5018038.0657   1   9   0.0098   0.0056   0.0126   0.0046   0.0054   0.0064   0.00    4.3
2024/05/18 01:25:00.000   3655333.9275   1403901.0957   5018038.0701   1   9   0.0098   0.0057   0.0126   0.0047   0.0053   0.0065   0.00    4.4
2024/05/18 01:25:30.000   3655333.9266   1403901.0967   5018038.0650   1   9   0.0098   0.0056   0.0126   0.0047   0.0054   0.0065   0.00    4.4
2024/05/18 01:26:00.000   3655333.9104   1403901.0825   5018038.0549   1   9   0.0098   0.0057   0.0127   0.0046   0.0054   0.0067   0.00    4.5
2024/05/18 01:26:30.000   3655333.9124   1403901.0852   5018038.0648   1   9   0.0098   0.0055   0.0127   0.0047   0.0053   0.0067   0.00    4.6
2024/05/18 01:27:00.000   3655333.9019   1403901.0819   5018038.0603   1   9   0.0098   0.0057   0.0128   0.0048   0.0054   0.0068   0.00    4.6
2024/05/18 01:27:30.000   3655333.9118   1403901.0936   5018038.0707   1   9   0.0098   0.0055   0.0127   0.0049   0.0055   0.0069   0.00    4.6
2024/05/18 01:28:00.000   3655333.9238   1403901.1020   5018038.0742   1   9   0.0098   0.0056   0.0128   0.0049   0.0055   0.0070   0.00    4.7
2024/05/18 01:28:30.000   3655333.9292   1403901.1153   5018038.0815   1   9   0.0098   0.0056   0.0128   0.0049   0.0056   0.0071   0.00    4.6
2024/05/18 01:29:00.000   3655333.9303   1403901.1156   5018038.0861   1   9   0.0099   0.0057   0.0129   0.0048   0.0056   0.0072   0.00    4.6
2024/05/18 01:29:30.000   3655333.9181   1403901.1084   5018038.0804   1   9   0.0099   0.0056   0.0129   0.0049   0.0056   0.0072   0.00    4.7
2024/05/18 01:30:00.000   3655333.9251   1403901.1130   5018038.0839   1   9   0.0099   0.0057   0.0129   0.0049   0.0057   0.0074   0.00    4.7
2024/05/18 01:30:30.000   3655333.9124   1403901.1089   5018038.0861   1   9   0.0099   0.0060   0.0130   0.0049   0.0057   0.0074   0.00    4.7
2024/05/18 01:31:00.000   3655333.9207   1403901.1199   5018038.0977   1   9   0.0099   0.0059   0.0130   0.0049   0.0058   0.0075   0.00    4.7
2024/05/18 01:31:30.000   3655333.8917   1403901.1045   5018038.0856   1   9   0.0099   0.0059   0.0131   0.0051   0.0058   0.0076   0.00    4.8
2024/05/18 01:32:00.000   3655333.8784   1403901.0988   5018038.0790   1   9   0.0099   0.0057   0.0131   0.0051   0.0058   0.0077   0.00    4.9
2024/05/18 01:32:30.000   3655333.8832   1403901.1012   5018038.0748   1   9   0.0100   0.0059   0.0131   0.0051   0.0058   0.0078   0.00    5.0
2024/05/18 01:33:00.000   3655333.8845   1403901.1052   5018038.0766   1   9   0.0100   0.0058   0.0132   0.0052   0.0059   0.0078   0.00    5.1
2024/05/18 01:33:30.000   3655333.8875   1403901.1127   5018038.0810   1   9   0.0100   0.0061   0.0132   0.0052   0.0059   0.0079   0.00    5.1
2024/05/18 01:34:00.000   3655333.8784   1403901.1086   5018038.0789   1   9   0.0100   0.0060   0.0134   0.0052   0.0059   0.0080   0.00    5.1
2024/05/18 01:34:30.000   3655333.9175   1403901.1391   5018038.1099   1   9   0.0100   0.0058   0.0134   0.0051   0.0061   0.0081   0.00    5.1
2024/05/18 01:35:00.000   3655333.9078   1403901.1367   5018038.1102   1   9   0.0100   0.0059   0.0134   0.0052   0.0059   0.0082   0.00    5.1
2024/05/18 01:35:30.000   3655333.8731   1403901.1092   5018038.0767   1   9   0.0101   0.0058   0.0135   0.0054   0.0062   0.0083   0.00    5.1
2024/05/18 01:36:00.000   3655333.8053   1403901.1886   5018038.0661   2  10   0.0117   0.0104   0.0146   0.0033   0.0069   0.0096   0.00    1.0
2024/05/18 01:36:30.000   3655333.8141   1403901.1922   5018038.0842   2  10   0.0113   0.0101   0.0146   0.0033   0.0067   0.0095   0.00    1.1
2024/05/18 01:37:00.000   3655333.8162   1403901.1930   5018038.0850   2  10   0.0112   0.0099   0.0146   0.0031   0.0066   0.0095   0.00    1.1
2024/05/18 01:37:30.000   3655333.8068   1403901.1862   5018038.0714   2  10   0.0112   0.0100   0.0147   0.0030   0.0066   0.0095   0.00    1.1
2024/05/18 01:38:00.000   3655333.7958   1403901.1782   5018038.0623   2  10   0.0112   0.0098   0.0147   0.0032   0.0066   0.0096   0.00    1.2
2024/05/18 01:38:30.000   3655333.8088   1403901.1838   5018038.0708   2  10   0.0112   0.0098   0.0147   0.0033   0.0066   0.0096   0.00    1.2
2024/05/18 01:39:00.000   3655333.7959   1403901.1823   5018038.0716   2  10   0.0112   0.0096   0.0147   0.0032   0.0066   0.0097   0.00    1.2
2024/05/18 01:39:30.000   3655333.7945   1403901.1840   5018038.0681   2  10   0.0112   0.0097   0.0148   0.0032   0.0066   0.0097   0.00    1.3
2024/05/18 01:40:00.000   3655333.7958   1403901.1850   5018038.0708   2  10   0.0112   0.0098   0.0148   0.0032   0.0067   0.0097   0.00    1.3
2024/05/18 01:40:30.000   3655333.8078   1403901.2033   5018038.0840   2  10   0.0112   0.0095   0.0149   0.0032   0.0067   0.0098   0.00    1.3
2024/05/18 01:41:00.000   3655333.7980   1403901.1966   5018038.0812   2  10   0.0112   0.0096   0.0149   0.0037   0.0067   0.0099   0.00    1.4
2024/05/18 01:41:30.000   3655333.7822   1403901.1888   5018038.0577   2  10   0.0111   0.0094   0.0150   0.0036   0.0067   0.0100   0.00    1.4
2024/05/18 01:42:00.000   3655333.7747   1403901.1744   5018038.0359   2  10   0.0112   0.0094   0.0150   0.0039   0.0067   0.0100   0.00    1.4
2024/05/18 01:42:30.000   3655333.7778   1403901.1880   5018038.0493   2  10   0.0112   0.0094   0.0151   0.0039   0.0067   0.0101   0.00    1.5
2024/05/18 01:43:00.000   3655333.7730   1403901.1793   5018038.0452   2  10   0.0112   0.0095   0.0151   0.0037   0.0068   0.0103   0.00    1.5
2024/05/18 01:43:30.000   3655333.7658   1403901.1746   5018038.0385   2  10   0.0112   0.0092   0.0152   0.0040   0.0068   0.0102   0.00    1.5
2024/05/18 01:44:00.000   3655333.7683   1403901.1774   5018038.0452   2  10   0.0112   0.0094   0.0152   0.0040   0.0068   0.0104   0.00    1.6
2024/05/18 01:44:30.000   3655333.7585   1403901.1743   5018038.0460   2  10   0.0112   0.0093   0.0153   0.0041   0.0068   0.0103   0.00    1.6
2024/05/18 01:45:00.000   3655333.7793   1403901.1870   5018038.0684   2  10   0.0112   0.0092   0.0153   0.0043   0.0068   0.0105   0.00    1.6
2024/05/18 01:45:30.000   3655333.7745   1403901.1874   5018038.0608   2  10   0.0113   0.0092   0.0154   0.0042   0.0068   0.0105   0.00    1.6
2024/05/18 01:46:00.000   3655333.7822   1403901.2017   5018038.0751   2  10   0.0112   0.0090   0.0154   0.0043   0.0068   0.0106   0.00    1.6
2024/05/18 01:46:30.000   3655333.7632   1403901.1900   5018038.0504   2  10   0.0113   0.0092   0.0154   0.0045   0.0068   0.0107   0.00    1.7
2024/05/18 01:47:00.000   3655333.7839   1403901.2018   5018038.0696   2  10   0.0112   0.0091   0.0155   0.0047   0.0068   0.0108   0.00    1.7
2024/05/18 01:47:30.000   3655333.7826   1403901.2085   5018038.0781   2  10   0.0113   0.0090   0.0156   0.0043   0.0069   0.0107   0.00    1.8
2024/05/18 01:48:00.000   3655333.7774   1403901.2133   5018038.0777   2  10   0.0113   0.0090   0.0156   0.0044   0.0069   0.0108   0.00    1.9
2024/05/18 01:48:30.000   3655333.7695   1403901.2057   5018038.0637   2  10   0.0114   0.0090   0.0157   0.0046   0.0069   0.0109   0.00    2.0
2024/05/18 01:49:00.000   3655333.7903   1403901.2278   5018038.0826   2  10   0.0113   0.0089   0.0157   0.0046   0.0070   0.0109   0.00    2.1
2024/05/18 01:49:30.000   3655333.7568   1403901.2144   5018038.0531   2  10   0.0115   0.0090   0.0158   0.0047   0.0070   0.0110   0.00    2.1
2024/05/18 01:50:00.000   3655333.7655   1403901.2166   5018038.0554   2  10   0.0113   0.0089   0.0158   0.0047   0.0070   0.0111   0.00    2.2
2024/05/18 01:50:30.000   3655333.8030   1403901.2431   5018038.0981   2  10   0.0115   0.0088   0.0159   0.0046   0.0070   0.0111   0.00    2.2
2024/05/18 01:51:00.000   3655333.8073   1403901.2470   5018038.1013   2  10   0.0115   0.0089   0.0159   0.0049   0.0070   0.0112   0.00    2.1
2024/05/18 01:51:30.000   3655333.7901   1403901.2327   5018038.0872   2  10   0.0115   0.0089   0.0160   0.0048   0.0071   0.0112   0.00    2.1
2024/05/18 01:52:00.000   3655333.7790   1403901.2287   5018038.0793   2  10   0.0116   0.0088   0.0160   0.0051   0.0071   0.0113   0.00    2.1
2024/05/18 01:52:30.000   3655333.7948   1403901.2410   5018038.0938   2  10   0.0116   0.0088   0.0161   0.0049   0.0071   0.0113   0.00    2.1
2024/05/18 01:53:00.000   3655333.7792   1403901.2223   5018038.0731   2  10   0.0116   0.0088   0.0161   0.0052   0.0071   0.0114   0.00    2.2
2024/05/18 01:53:30.000   3655333.7792   1403901.2228   5018038.0765   2  10   0.0117   0.0089   0.0162   0.0049   0.0072   0.0115   0.00    2.2
2024/05/18 01:54:00.000   3655333.7787   1403901.2198   5018038.0654   2  10   0.0115   0.0087   0.0162   0.0054   0.0070   0.0116   0.00    2.3
2024/05/18 01:54:30.000   3655333.7896   1403901.2236   5018038.0620   2  10   0.0116   0.0087   0.0162   0.0053   0.0071   0.0116   0.00    2.3
2024/05/18 01:55:00.000   3655333.8000   1403901.2251   5018038.0732   2  10   0.0118   0.0087   0.0163   0.0053   0.0072   0.0116   0.00    2.3
2024/05/18 01:55:30.000   3655333.8196   1403901.2360   5018038.0899   2  10   0.0117   0.0087   0.0164   0.0053   0.0072   0.0117   0.00    2.3
2024/05/18 01:56:00.000   3655333.7994   1403901.2183   5018038.0682   2  10   0.0118   0.0086   0.0164   0.0053   0.0072   0.0117   0.00    2.4
2024/05/18 01:56:30.000   3655333.7846   1403901.2098   5018038.0523   2  10   0.0117   0.0085   0.0164   0.0052   0.0072   0.0118   0.00    2.5
2024/05/18 01:57:00.000   3655333.8426   1403901.0888   5018038.0503   1  10   0.0105   0.0060   0.0156   0.0059   0.0072   0.0111   0.00    2.6
2024/05/18 01:57:30.000   3655333.8432   1403901.0918   5018038.0612   1  10   0.0105   0.0061   0.0158   0.0059   0.0073   0.0110   0.00    2.6
2024/05/18 01:58:00.000   3655333.8513   1403901.0999   5018038.0715   1  10   0.0107   0.0061   0.0158   0.0061   0.0072   0.0110   0.00    2.7
2024/05/18 01:58:30.000   3655333.8097   1403901.2402   5018038.0810   2  11   0.0118   0.0086   0.0166   0.0056   0.0072   0.0120   0.00    1.0
2024/05/18 01:59:00.000   3655333.7548   1403901.2153   5018038.0262   2  10   0.0124   0.0084   0.0172   0.0054   0.0071   0.0128   0.00    1.1
2024/05/18 01:59:30.000   3655333.7541   1403901.2223   5018038.0145   2  10   0.0124   0.0083   0.0169   0.0053   0.0068   0.0126   0.00    1.1
2024/05/18 02:00:00.000   3655333.7504   1403901.2207   5018037.9976   2  10   0.0124   0.0084   0.0168   0.0054   0.0068   0.0125   0.00    1.1
2024/05/18 02:00:30.000   3655333.7562   1403901.2198   5018038.0032   2  10   0.0124   0.0083   0.0167   0.0053   0.0067   0.0125   0.00    1.2
2024/05/18 02:01:00.000   3655333.7703   1403901.2262   5018038.0079   2  10   0.0123   0.0081   0.0166   0.0053   0.0066   0.0125   0.00    1.2
2024/05/18 02:01:30.000   3655333.7719   1403901.2236   5018038.0122   2  10   0.0123   0.0083   0.0165   0.0054   0.0063   0.0125   0.00    1.2
2024/05/18 02:02:00.000   3655333.7405   1403901.2150   5018037.9686   2  10   0.0122   0.0083   0.0164   0.0054   0.0064   0.0125   0.00    1.2
2024/05/18 02:02:30.000   3655333.7551   1403901.2176   5018037.9854   2  10   0.0123   0.0083   0.0164   0.0053   0.0064   0.0124   0.00    1.3
2024/05/18 02:03:00.000   3655333.7545   1403901.2158   5018037.9843   2  10   0.0123   0.0080   0.0163   0.0053   0.0063   0.0124   0.00    1.3
2024/05/18 02:03:30.000   3655333.7441   1403901.2058   5018037.9640   2  10   0.0123   0.0082   0.0163   0.0053   0.0063   0.0124   0.00    1.3
2024/05/18 02:04:00.000   3655333.7630   1403901.2083   5018037.9788   2  10   0.0123   0.0080   0.0162   0.0053   0.0063   0.0124   0.00    1.3
2024/05/18 02:04:30.000   3655333.7859   1403901.2170   5018037.9988   2  10   0.0123   0.0080   0.0162   0.0054   0.0062   0.0123   0.00    1.4
2024/05/18 02:05:00.000   3655333.7755   1403901.2104   5018037.9931   2  10   0.0123   0.0081   0.0161   0.0052   0.0062   0.0124   0.00    1.4
2024/05/18 02:05:30.000   3655333.7459   1403901.1979   5018037.9688   2  10   0.0122   0.0080   0.0161   0.0053   0.0062   0.0123   0.00    1.4
2024/05/18 02:06:00.000   3655333.7278   1403901.1876   5018037.9575   2  10   0.0122   0.0078   0.0160   0.0054   0.0061   0.0123   0.00    1.4
2024/05/18 02:06:30.000   3655333.7351   1403901.1968   5018037.9684   2  10   0.0121   0.0080   0.0159   0.0054   0.0060   0.0123   0.00    1.5
2024/05/18 02:07:00.000   3655333.7387   1403901.1971   5018037.9755   2  10   0.0137   0.0087   0.0169   0.0071   0.0075   0.0136   0.00    1.1
2024/05/18 02:07:30.000   3655333.7439   1403901.2028   5018037.9857   2  10   0.0137   0.0087   0.0168   0.0071   0.0075   0.0136   0.00    1.1
2024/05/18 02:08:00.000   3655333.7522   1403901.2057   5018037.9888   2  10   0.0130   0.0084   0.0164   0.0063   0.0068   0.0128   0.00    1.1
2024/05/18 02:08:30.000   3655333.7545   1403901.2060   5018037.9946   2  10   0.0127   0.0082   0.0161   0.0060   0.0065   0.0126   0.00    1.2
2024/05/18 02:09:00.000   3655333.7607   1403901.2112   5018038.0079   2  10   0.0126   0.0083   0.0159   0.0058   0.0064   0.0124   0.00    1.2
2024/05/18 02:09:30.000   3655333.7732   1403901.2175   5018038.0178   2  10   0.0124   0.0078   0.0158   0.0058   0.0063   0.0123   0.00    1.2
2024/05/18 02:10:00.000   3655333.7670   1403901.2184   5018038.0145   2  10   0.0124   0.0079   0.0157   0.0057   0.0064   0.0123   0.00    1.3
2024/05/18 02:10:30.000   3655333.7631   1403901.2073   5018038.0171   2  10   0.0123   0.0081   0.0157   0.0057   0.0061   0.0122   0.00    1.3
2024/05/18 02:11:00.000   3655333.7391   1403901.2000   5018037.9955   2  10   0.0122   0.0077   0.0156   0.0058   0.0062   0.0121   0.00    1.4
2024/05/18 02:11:30.000   3655333.7477   1403901.2046   5018038.0083   2  10   0.0121   0.0080   0.0155   0.0056   0.0061   0.0121   0.00    1.4
2024/05/18 02:12:00.000   3655333.7498   1403901.2017   5018038.0104   2  10   0.0122   0.0079   0.0154   0.0056   0.0060   0.0120   0.00    1.5
2024/05/18 02:12:30.000   3655333.7572   1403901.2091   5018038.0184   2  10   0.0121   0.0080   0.0154   0.0056   0.0058   0.0120   0.00    1.6
2024/05/18 02:13:00.000   3655333.7865   1403901.2271   5018038.0413   2  10   0.0120   0.0079   0.0153   0.0055   0.0059   0.0120   0.00    1.8
2024/05/18 02:13:30.000   3655333.7899   1403901.2293   5018038.0462   2  10   0.0120   0.0078   0.0153   0.0057   0.0058   0.0119   0.00    1.9
2024/05/18 02:14:00.000   3655333.7771   1403901.2222   5018038.0439   2  10   0.0120   0.0078   0.0151   0.0055   0.0058   0.0118   0.00    1.9
2024/05/18 02:14:30.000   3655333.7538   1403901.2099   5018038.0246   2  10   0.0120   0.0078   0.0151   0.0055   0.0057   0.0118   0.00    1.9
2024/05/18 02:15:00.000   3655333.7329   1403901.2010   5018038.0043   2  10   0.0119   0.0077   0.0150   0.0055   0.0058   0.0118   0.00    1.9
2024/05/18 02:15:30.000   3655333.7009   1403901.1774   5018037.9836   2  10   0.0120   0.0078   0.0149   0.0054   0.0057   0.0117   0.00    2.0
2024/05/18 02:16:00.000   3655333.7051   1403901.1854   5018037.9922   2  10   0.0120   0.0079   0.0149   0.0053   0.0055   0.0117   0.00    2.1
2024/05/18 02:16:30.000   3655333.7020   1403901.1866   5018037.9909   2  10   0.0119   0.0078   0.0148   0.0054   0.0057   0.0116   0.00    2.1
2024/05/18 02:17:00.000   3655333.6966   1403901.1891   5018037.9866   2  10   0.0119   0.0078   0.0147   0.0056   0.0055   0.0116   0.00    2.1
2024/05/18 02:17:30.000   3655333.7057   1403901.1955   5018037.9880   2  10   0.0119   0.0080   0.0147   0.0054   0.0056   0.0115   0.00    2.1
2024/05/18 02:18:00.000   3655333.7147   1403901.2071   5018038.0021   2  10   0.0118   0.0077   0.0146   0.0054   0.0056   0.0115   0.00    2.1
2024/05/18 02:18:30.000   3655333.7237   1403901.2089   5018038.0161   2  10   0.0118   0.0076   0.0145   0.0057   0.0055   0.0114   0.00    2.1
2024/05/18 02:19:00.000   3655333.7253   1403901.2087   5018038.0246   2  10   0.0117   0.0075   0.0145   0.0056   0.0056   0.0113   0.00    2.0
2024/05/18 02:19:30.000   3655333.7257   1403901.2121   5018038.0334   2  10   0.0117   0.0078   0.0145   0.0057   0.0053   0.0113   0.00    2.0
2024/05/18 02:20:00.000   3655333.7119   1403901.2079   5018038.0119   2  10   0.0117   0.0077   0.0144   0.0055   0.0054   0.0113   0.00    2.0
2024/05/18 02:20:30.000   3655333.7085   1403901.2072   5018038.0056   2  10   0.0117   0.0078   0.0144   0.0055   0.0052   0.0112   0.00    2.0
2024/05/18 02:21:00.000   3655333.6979   1403901.2056   5018037.9904   2  10   0.0116   0.0077   0.0142   0.0056   0.0054   0.0112   0.00    2.0
2024/05/18 02:21:30.000   3655333.6659   1403901.1904   5018037.9614   2  10   0.0117   0.0076   0.0142   0.0055   0.0053   0.0111   0.00    2.0
2024/05/18 02:22:00.000   3655333.6678   1403901.1899   5018037.9611   2  10   0.0116   0.0080   0.0141   0.0053   0.0052   0.0111   0.00    2.0
2024/05/18 02:22:30.000   3655333.6608   1403901.1908   5018037.9543   2  10   0.0116   0.0074   0.0140   0.0057   0.0053   0.0111   0.00    2.0
2024/05/18 02:23:00.000   3655333.6663   1403901.1985   5018037.9568   2  10   0.0116   0.0079   0.0140   0.0056   0.0052   0.0109   0.00    2.0
2024/05/18 02:23:30.000   3655333.6927   1403901.2136   5018037.9764   2  10   0.0115   0.0077   0.0139   0.0054   0.0052   0.0109   0.00    1.9
2024/05/18 02:24:00.000   3655333.6803   1403901.2074   5018037.9676   2  10   0.0115   0.0076   0.0138   0.0057   0.0051   0.0109   0.00    1.9
2024/05/18 02:24:30.000   3655333.6642   1403901.2055   5018037.9479   2  10   0.0115   0.0079   0.0138   0.0055   0.0050   0.0109   0.00    1.9
2024/05/18 02:25:00.000   3655333.6562   1403901.2018   5018037.9361   2  10   0.0115   0.0076   0.0137   0.0056   0.0052   0.0108   0.00    1.8
2024/05/18 02:25:30.000   3655333.6605   1403901.2101   5018037.9308   2  10   0.0114   0.0079   0.0136   0.0055   0.0050   0.0108   0.00    1.8
2024/05/18 02:26:00.000   3655333.6545   1403901.1981   5018037.9257   2  10   0.0114   0.0077   0.0136   0.0056   0.0051   0.0107   0.00    1.8
2024/05/18 02:26:30.000   3655333.6521   1403901.1956   5018037.9283   2  10   0.0114   0.0077   0.0135   0.0056   0.0051   0.0106   0.00    1.8
2024/05/18 02:27:00.000   3655333.6618   1403901.1976   5018037.9386   2  10   0.0114   0.0079   0.0135   0.0053   0.0050   0.0106   0.00    1.8
2024/05/18 02:27:30.000   3655333.6672   1403901.1940   5018037.9502   2  10   0.0113   0.0078   0.0134   0.0057   0.0049   0.0105   0.00    1.8
2024/05/18 02:28:00.000   3655333.6763   1403901.1998   5018037.9543   2  10   0.0113   0.0080   0.0134   0.0055   0.0048   0.0105   0.00    1.7
2024/05/18 02:28:30.000   3655333.6682   1403901.1972   5018037.9428   2  10   0.0113   0.0080   0.0134   0.0053   0.0047   0.0105   0.00    1.7
2024/05/18 02:29:00.000   3655333.6801   1403901.2007   5018037.9444   2  10   0.0113   0.0076   0.0133   0.0057   0.0050   0.0104   0.00    1.7
2024/05/18 02:29:30.000   3655333.6562   1403901.1856   5018037.9260   2  10   0.0113   0.0078   0.0132   0.0055   0.0048   0.0103   0.00    1.7
2024/05/18 02:30:00.000   3655333.6701   1403901.1988   5018037.9365   2  10   0.0112   0.0078   0.0131   0.0056   0.0047   0.0103   0.00    1.7
2024/05/18 02:30:30.000   3655333.6734   1403901.2011   5018037.9506   2  10   0.0112   0.0078   0.0130   0.0057   0.0049   0.0103   0.00    1.7
2024/05/18 02:31:00.000   3655333.6666   1403901.1955   5018037.9535   2  10   0.0112   0.0079   0.0130   0.0057   0.0046   0.0103   0.00    1.8
2024/05/18 02:31:30.000   3655333.6606   1403901.1921   5018037.9492   2  10   0.0112   0.0079   0.0129   0.0057   0.0048   0.0102   0.00    1.8
2024/05/18 02:32:00.000   3655333.6662   1403901.1914   5018037.9528   2  10   0.0112   0.0079   0.0129   0.0056   0.0044   0.0102   0.00    1.8
2024/05/18 02:32:30.000   3655333.6722   1403901.1895   5018037.9619   2  10   0.0112   0.0079   0.0129   0.0056   0.0046   0.0101   0.00    1.8
2024/05/18 02:33:00.000   3655333.6688   1403901.1875   5018037.9665   2  10   0.0111   0.0076   0.0129   0.0059   0.0046   0.0100   0.00    1.8
2024/05/18 02:33:30.000   3655333.6679   1403901.1823   5018037.9604   2  10   0.0111   0.0076   0.0128   0.0057   0.0046   0.0100   0.00    1.9
2024/05/18 02:34:00.000   3655333.6758   1403901.1755   5018037.9614   2  10   0.0111   0.0075   0.0127   0.0060   0.0049   0.0099   0.00    1.9
2024/05/18 02:34:30.000   3655333.6797   1403901.1683   5018037.9643   2  10   0.0111   0.0079   0.0126   0.0056   0.0046   0.0099   0.00    2.0
2024/05/18 02:35:00.000   3655333.6898   1403901.1737   5018037.9750   2  10   0.0110   0.0077   0.0125   0.0058   0.0047   0.0099   0.00    2.0
2024/05/18 02:35:30.000   3655333.7003   1403901.1681   5018037.9931   2  10   0.0110   0.0078   0.0126   0.0058   0.0046   0.0098   0.00    2.1
2024/05/18 02:36:00.000   3655333.7191   1403901.1799   5018038.0135   2  10   0.0111   0.0077   0.0125   0.0059   0.0044   0.0098   0.00    2.1
2024/05/18 02:36:30.000   3655333.7291   1403901.1844   5018038.0189   2  10   0.0110   0.0079   0.0125   0.0058   0.0044   0.0097   0.00    2.2
2024/05/18 02:37:00.000   3655333.7305   1403901.1734   5018038.0298   2  10   0.0110   0.0078   0.0124   0.0059   0.0043   0.0097   0.00    2.2
2024/05/18 02:37:30.000   3655333.7356   1403901.1739   5018038.0351   2  10   0.0109   0.0078   0.0124   0.0059   0.0045   0.0097   0.00    2.3
2024/05/18 02:38:00.000   3655333.7362   1403901.1664   5018038.0248   2  10   0.0109   0.0078   0.0124   0.0060   0.0044   0.0096   0.00    2.3
2024/05/18 02:38:30.000   3655333.7578   1403901.1665   5018038.0389   2  10   0.0110   0.0080   0.0123   0.0058   0.0043   0.0095   0.00    2.4
2024/05/18 02:39:00.000   3655333.7721   1403901.1631   5018038.0456   2  10   0.0110   0.0080   0.0123   0.0059   0.0042   0.0095   0.00    2.4
2024/05/18 02:39:30.000   3655333.7843   1403901.1646   5018038.0625   2  10   0.0110   0.0079   0.0122   0.0059   0.0044   0.0095   0.00    2.4
2024/05/18 02:40:00.000   3655333.8661   1403901.1100   5018038.1082   1  10   0.0104   0.0068   0.0119   0.0062   0.0048   0.0091   0.00    2.5
2024/05/18 02:40:30.000   3655333.8574   1403901.1130   5018038.1039   1  10   0.0104   0.0067   0.0118   0.0062   0.0047   0.0091   0.00    2.6
2024/05/18 02:41:00.000   3655333.8509   1403901.1113   5018038.0952   1  10   0.0105   0.0068   0.0118   0.0063   0.0048   0.0090   0.00    2.7
2024/05/18 02:41:30.000   3655333.8556   1403901.1167   5018038.1076   1  10   0.0104   0.0068   0.0117   0.0063   0.0048   0.0090   0.00    2.8
2024/05/18 02:42:00.000   3655333.8601   1403901.1178   5018038.1089   1  10   0.0104   0.0069   0.0117   0.0063   0.0049   0.0089   0.00    2.8
2024/05/18 02:42:30.000   3655333.8637   1403901.1144   5018038.1099   1  10   0.0104   0.0069   0.0118   0.0062   0.0046   0.0089   0.00    2.9
2024/05/18 02:43:00.000   3655333.8545   1403901.1029   5018038.1052   1  10   0.0104   0.0068   0.0116   0.0063   0.0049   0.0088   0.00    3.0
2024/05/18 02:43:30.000   3655333.8541   1403901.1019   5018038.0939   1  10   0.0104   0.0069   0.0116   0.0063   0.0048   0.0088   0.00    3.1
2024/05/18 02:44:00.000   3655333.8608   1403901.1064   5018038.0993   1  10   0.0104   0.0069   0.0116   0.0065   0.0047   0.0088   0.00    3.1
2024/05/18 02:44:30.000   3655333.8745   1403901.1202   5018038.0960   1  10   0.0104   0.0070   0.0116   0.0065   0.0045   0.0087   0.00    3.1
2024/05/18 02:45:00.000   3655333.8745   1403901.1181   5018038.0994   1  10   0.0104   0.0070   0.0115   0.0064   0.0047   0.0087   0.00    3.1
2024/05/18 02:45:30.000   3655333.8611   1403901.1053   5018038.0927   1  10   0.0104   0.0070   0.0115   0.0064   0.0044   0.0087   0.00    3.2
2024/05/18 02:46:00.000   3655333.8573   1403901.1018   5018038.0917   1  10   0.0104   0.0071   0.0115   0.0064   0.0045   0.0087   0.00    3.2
2024/05/18 02:46:30.000   3655333.8583   1403901.1027   5018038.0901   1  10   0.0104   0.0069   0.0115   0.0065   0.0044   0.0086   0.00    3.3
2024/05/18 02:47:00.000   3655333.8732   1403901.1102   5018038.0978   1  10   0.0104   0.0071   0.0114   0.0065   0.0046   0.0086   0.00    3.3
2024/05/18 02:47:30.000   3655333.8667   1403901.1067   5018038.0928   1  10   0.0103   0.0071   0.0114   0.0065   0.0044   0.0086   0.00    3.4
2024/05/18 02:48:00.000   3655333.8692   1403901.1126   5018038.0830   1  10   0.0104   0.0072   0.0114   0.0065   0.0044   0.0085   0.00    3.4
2024/05/18 02:48:30.000   3655333.8689   1403901.1119   5018038.0804   1  10   0.0104   0.0071   0.0114   0.0066   0.0044   0.0085   0.00    3.4
2024/05/18 02:49:00.000   3655333.8673   1403901.1164   5018038.0839   1  10   0.0104   0.0072   0.0114   0.0065   0.0044   0.0084   0.00    3.5
2024/05/18 02:49:30.000   3655333.8626   1403901.1049   5018038.0885   1  10   0.0104   0.0072   0.0113   0.0067   0.0044   0.0084   0.00    3.5
2024/05/18 02:50:00.000   3655333.8657   1403901.0991   5018038.0917   1  10   0.0104   0.0073   0.0113   0.0066   0.0044   0.0084   0.00    3.6
2024/05/18 02:50:30.000   3655333.8844   1403901.1081   5018038.1073   1  10   0.0104   0.0074   0.0113   0.0066   0.0042   0.0083   0.00    3.6
2024/05/18 02:51:00.000   3655333.8793   1403901.1012   5018038.1086   1  10   0.0104   0.0073   0.0113   0.0067   0.0041   0.0083   0.00    3.7
2024/05/18 02:51:30.000   3655333.8043   1403901.1239   5018038.0776   2  10   0.0118   0.0084   0.0122   0.0068   0.0038   0.0095   0.00    1.1
2024/05/18 02:52:00.000   3655333.7857   1403901.1127   5018038.0751   2  10   0.0118   0.0084   0.0121   0.0068   0.0040   0.0095   0.00    1.1
2024/05/18 02:52:30.000   3655333.7628   1403901.1033   5018038.0617   2  10   0.0117   0.0085   0.0120   0.0068   0.0040   0.0094   0.00    1.1
2024/05/18 02:53:00.000   3655333.7761   1403901.1180   5018038.0638   2   9   0.0123   0.0092   0.0124   0.0078   0.0050   0.0100   0.00    1.1
2024/05/18 02:53:30.000   3655333.7829   1403901.1251   5018038.0686   2   9   0.0118   0.0091   0.0121   0.0075   0.0047   0.0095   0.00    1.1
2024/05/18 02:54:00.000   3655333.7748   1403901.1177   5018038.0679   2   9   0.0116   0.0092   0.0120   0.0075   0.0046   0.0092   0.00    1.1
2024/05/18 02:54:30.000   3655333.7844   1403901.1260   5018038.0738   2   9   0.0116   0.0092   0.0119   0.0075   0.0046   0.0091   0.00    1.1
2024/05/18 02:55:00.000   3655333.7905   1403901.1292   5018038.0781   2   9   0.0115   0.0092   0.0118   0.0076   0.0045   0.0090   0.00    1.1
2024/05/18 02:55:30.000   3655333.8002   1403901.1398   5018038.0863   2   9   0.0115   0.0093   0.0119   0.0075   0.0043   0.0090   0.00    1.1
2024/05/18 02:56:00.000   3655333.7976   1403901.1363   5018038.0956   2   9   0.0114   0.0092   0.0118   0.0076   0.0042   0.0089   0.00    1.1
2024/05/18 02:56:30.000   3655333.7921   1403901.1301   5018038.1009   2   9   0.0114   0.0092   0.0118   0.0076   0.0044   0.0088   0.00    1.1
2024/05/18 02:57:00.000   3655333.7988   1403901.1270   5018038.1008   2   9   0.0113   0.0093   0.0118   0.0077   0.0043   0.0088   0.00    1.2
2024/05/18 02:57:30.000   3655333.7902   1403901.1224   5018038.0983   2   9   0.0113   0.0093   0.0117   0.0076   0.0043   0.0088   0.00    1.2
2024/05/18 02:58:00.000   3655333.8513   1403901.1020   5018038.1051   1   8   0.0117   0.0086   0.0119   0.0079   0.0049   0.0091   0.00    3.1
2024/05/18 02:58:30.000   3655333.8423   1403901.0936   5018038.1039   1   8   0.0116   0.0086   0.0119   0.0079   0.0048   0.0090   0.00    3.1
2024/05/18 02:59:00.000   3655333.8409   1403901.0936   5018038.1039   1   8   0.0115   0.0087   0.0119   0.0079   0.0048   0.0090   0.00    3.0
2024/05/18 02:59:30.000   3655333.8298   1403901.0903   5018038.0893   1   8   0.0115   0.0086   0.0119   0.0080   0.0049   0.0089   0.00    3.0
2024/05/18 03:00:00.000   3655333.8315   1403901.0956   5018038.0884   1   8   0.0115   0.0087   0.0118   0.0081   0.0047   0.0089   0.00    2.9
2024/05/18 03:00:30.000   3655333.8220   1403901.0954   5018038.0797   1   8   0.0116   0.0088   0.0118   0.0080   0.0046   0.0088   0.00    2.9
2024/05/18 03:01:00.000   3655333.8163   1403901.0990   5018038.0808   1   8   0.0114   0.0088   0.0119   0.0081   0.0045   0.0087   0.00    2.8
2024/05/18 03:01:30.000   3655333.8201   1403901.0950   5018038.0786   1   8   0.0115   0.0089   0.0118   0.0081   0.0043   0.0087   0.00    2.8
2024/05/18 03:02:00.000   3655333.8236   1403901.0994   5018038.0759   1   8   0.0114   0.0089   0.0118   0.0081   0.0045   0.0086   0.00    2.7
2024/05/18 03:02:30.000   3655333.7588   1403901.1311   5018038.0615   2   9   0.0117   0.0097   0.0120   0.0080   0.0038   0.0088   0.00    1.0
2024/05/18 03:03:00.000   3655333.7432   1403901.1164   5018038.0583   2   9   0.0112   0.0092   0.0121   0.0073   0.0029   0.0085   0.00    1.0
2024/05/18 03:03:30.000   3655333.7384   1403901.1154   5018038.0569   2   9   0.0110   0.0091   0.0120   0.0070   0.0030   0.0083   0.00    1.0
2024/05/18 03:04:00.000   3655333.7495   1403901.1275   5018038.0627   2   9   0.0117   0.0098   0.0120   0.0080   0.0035   0.0087   0.00    1.0
2024/05/18 03:04:30.000   3655333.7452   1403901.1323   5018038.0554   2   9   0.0111   0.0093   0.0120   0.0073   0.0029   0.0083   0.00    1.0
2024/05/18 03:05:00.000   3655333.7499   1403901.1375   5018038.0573   2   9   0.0109   0.0091   0.0120   0.0070   0.0025   0.0082   0.00    1.1
2024/05/18 03:05:30.000   3655333.7520   1403901.1373   5018038.0644   2   9   0.0107   0.0090   0.0121   0.0068   0.0025   0.0081   0.00    1.1
2024/05/18 03:06:00.000   3655333.7391   1403901.1238   5018038.0615   2  10   0.0106   0.0089   0.0120   0.0068   0.0021   0.0080   0.00    1.0
2024/05/18 03:06:30.000   3655333.7457   1403901.1295   5018038.0642   2  10   0.0104   0.0088   0.0119   0.0065   0.0006   0.0077   0.00    1.0
2024/05/18 03:07:00.000   3655333.7651   1403901.1342   5018038.0769   2  10   0.0103   0.0087   0.0119   0.0065   0.0009   0.0076   0.00    1.0
2024/05/18 03:07:30.000   3655333.7766   1403901.1316   5018038.0840   2  10   0.0103   0.0086   0.0118   0.0064  -0.0007   0.0075   0.00    1.0
2024/05/18 03:08:00.000   3655333.7883   1403901.1285   5018038.0951   2  10   0.0102   0.0087   0.0118   0.0062  -0.0016   0.0075   0.00    1.0
2024/05/18 03:08:30.000   3655333.8138   1403901.1489   5018038.0996   2  10   0.0102   0.0086   0.0118   0.0063  -0.0018   0.0074   0.00    1.0
2024/05/18 03:09:00.000   3655333.8357   1403901.1586   5018038.1128   2  10   0.0101   0.0086   0.0118   0.0061  -0.0020   0.0074   0.00    1.0
2024/05/18 03:09:30.000   3655333.8336   1403901.1579   5018038.1081   2  10   0.0101   0.0086   0.0118   0.0062  -0.0022   0.0073   0.00    1.1
2024/05/18 03:10:00.000   3655333.8362   1403901.1515   5018038.1090   2  10   0.0100   0.0086   0.0119   0.0060  -0.0025   0.0072   0.00    1.1
2024/05/18 03:10:30.000   3655333.8314   1403901.1447   5018038.1152   2  10   0.0100   0.0086   0.0119   0.0060  -0.0026   0.0071   0.00    1.1
2024/05/18 03:11:00.000   3655333.8305   1403901.1419   5018038.1148   2  10   0.0099   0.0085   0.0119   0.0061  -0.0027   0.0071   0.00    1.1
2024/05/18 03:11:30.000   3655333.8316   1403901.1406   5018038.1171   2  10   0.0098   0.0084   0.0119   0.0061  -0.0029   0.0070   0.00    1.1
2024/05/18 03:12:00.000   3655333.8403   1403901.1490   5018038.1063   2  10   0.0099   0.0088   0.0135   0.0059  -0.0045   0.0071   0.00    1.0
2024/05/18 03:12:30.000   3655333.8379   1403901.1526   5018038.1094   2  10   0.0099   0.0088   0.0135   0.0059  -0.0046   0.0070   0.00    1.0
2024/05/18 03:13:00.000   3655333.8232   1403901.1509   5018038.1048   2  10   0.0098   0.0087   0.0128   0.0058  -0.0040   0.0069   0.00    1.0
2024/05/18 03:13:30.000   3655333.8119   1403901.1447   5018038.1030   2  10   0.0098   0.0086   0.0126   0.0059  -0.0039   0.0069   0.00    1.0
2024/05/18 03:14:00.000   3655333.8086   1403901.1524   5018038.0938   2  10   0.0098   0.0087   0.0136   0.0058  -0.0047   0.0069   0.00    1.0
2024/05/18 03:14:30.000   3655333.8068   1403901.1633   5018038.0832   2   9   0.0098   0.0087   0.0136   0.0059  -0.0047   0.0068   0.00    1.2
2024/05/18 03:15:00.000   3655333.7974   1403901.1546   5018038.0826   2   9   0.0097   0.0087   0.0136   0.0059  -0.0049   0.0068   0.00    1.2
2024/05/18 03:15:30.000   3655333.7769   1403901.1420   5018038.0878   2   9   0.0096   0.0087   0.0136   0.0058  -0.0049   0.0068   0.00    1.2
2024/05/18 03:16:00.000   3655333.7795   1403901.1514   5018038.0766   2   9   0.0096   0.0087   0.0136   0.0058  -0.0050   0.0067   0.00    1.2
2024/05/18 03:16:30.000   3655333.7947   1403901.1639   5018038.0736   2   9   0.0096   0.0086   0.0137   0.0057  -0.0050   0.0066   0.00    1.2
2024/05/18 03:17:00.000   3655333.8099   1403901.1691   5018038.0832   2   9   0.0095   0.0086   0.0137   0.0058  -0.0050   0.0066   0.00    1.3
2024/05/18 03:17:30.000   3655333.8387   1403901.1910   5018038.0845   2  10   0.0094   0.0086   0.0137   0.0058  -0.0051   0.0066   0.00    1.0
2024/05/18 03:18:00.000   3655333.8503   1403901.1961   5018038.0937   2  10   0.0094   0.0086   0.0133   0.0058  -0.0046   0.0064   0.00    1.0
2024/05/18 03:18:30.000   3655333.8614   1403901.1984   5018038.0941   2  10   0.0094   0.0084   0.0131   0.0058  -0.0044   0.0062   0.00    1.1
2024/05/18 03:19:00.000   3655333.8586   1403901.1932   5018038.0997   2  10   0.0093   0.0084   0.0130   0.0057  -0.0042   0.0062   0.00    1.1
2024/05/18 03:19:30.000   3655333.8702   1403901.1990   5018038.1030   2  10   0.0093   0.0084   0.0130   0.0058  -0.0043   0.0062   0.00    1.1
2024/05/18 03:20:00.000   3655333.8731   1403901.2015   5018038.1012   2  10   0.0093   0.0084   0.0129   0.0057  -0.0042   0.0061   0.00    1.2
2024/05/18 03:20:30.000   3655333.8655   1403901.1917   5018038.1037   2  10   0.0093   0.0083   0.0129   0.0058  -0.0042   0.0061   0.00    1.2
2024/05/18 03:21:00.000   3655333.8499   1403901.1807   5018038.1068   2  10   0.0093   0.0084   0.0129   0.0057  -0.0043   0.0060   0.00    1.2
2024/05/18 03:21:30.000   3655333.8345   1403901.1727   5018038.1059   2   9   0.0097   0.0090   0.0129   0.0065  -0.0039   0.0062   0.00    1.4
2024/05/18 03:22:00.000   3655333.8283   1403901.1657   5018038.1132   2   9   0.0096   0.0089   0.0129   0.0064  -0.0037   0.0061   0.00    1.4
2024/05/18 03:22:30.000   3655333.8232   1403901.1679   5018038.1060   2   9   0.0096   0.0089   0.0129   0.0064  -0.0038   0.0061   0.00    1.5
