% program   : RTKPOST ver.2.4.3 b34
% inp file  : C:\Users\adria\Desktop\projekt3\WUTR00POL_R_20241390000_01D_30S_MO.rnx
% inp file  : C:\Users\adria\Desktop\systemy-nawigacji-satelitarnej\projekt3\asg\WAT11390.24o
% inp file  : C:\Users\adria\Desktop\systemy-nawigacji-satelitarnej\projekt3\asg\WAT11390.24n
% obs start : 2024/05/18 00:00:00.0 GPST (week2314 518400.0s)
% obs end   : 2024/05/18 23:59:30.0 GPST (week2314 604770.0s)
% pos mode  : Kinematic
% freqs     : L1+2
% solution  : Forward
% elev mask : 10.0 deg
% dynamics  : off
% tidecorr  : off
% ionos opt : OFF
% tropo opt : OFF
% ephemeris : Broadcast
% navi sys  : GPS
% amb res   : Continuous
% val thres : 2.5
% antenna1  :                       ( 0.0000  0.0000  0.1010)
% antenna2  :                       ( 0.0000  0.0000  0.1600)
% ref pos   :  3655223.1698   1396074.4354   5020262.3760
%
% (x/y/z-ecef=WGS84,Q=1:fix,2:float,3:sbas,4:dgps,5:single,6:ppp,ns=# of satellites)
%  GPST                      x-ecef(m)      y-ecef(m)      z-ecef(m)   Q  ns   sdx(m)   sdy(m)   sdz(m)  sdxy(m)  sdyz(m)  sdzx(m) age(s)  ratio
2024/05/18 00:00:00.000   3655333.8401   1403901.0602   5018038.0533   1   9   0.0097   0.0062   0.0122   0.0048   0.0043   0.0084   0.00    3.4
2024/05/18 00:00:30.000   3655333.8385   1403901.0568   5018038.0556   1   9   0.0097   0.0062   0.0122   0.0047   0.0043   0.0083   0.00    4.8
2024/05/18 00:01:00.000   3655333.8456   1403901.0622   5018038.0559   1   9   0.0097   0.0063   0.0122   0.0048   0.0042   0.0083   0.00    7.9
2024/05/18 00:01:30.000   3655333.8492   1403901.0631   5018038.0544   1   9   0.0097   0.0062   0.0122   0.0048   0.0042   0.0083   0.00    8.4
2024/05/18 00:02:00.000   3655333.8376   1403901.0602   5018038.0503   1   9   0.0097   0.0063   0.0122   0.0048   0.0042   0.0083   0.00    6.8
2024/05/18 00:02:30.000   3655333.8403   1403901.0621   5018038.0535   1   9   0.0097   0.0062   0.0122   0.0049   0.0042   0.0082   0.00    5.1
2024/05/18 00:03:00.000   3655333.8515   1403901.0684   5018038.0561   1   9   0.0097   0.0063   0.0122   0.0049   0.0043   0.0082   0.00    4.2
2024/05/18 00:03:30.000   3655333.8520   1403901.0606   5018038.0609   1   9   0.0097   0.0063   0.0122   0.0048   0.0041   0.0082   0.00    5.6
2024/05/18 00:04:00.000   3655333.8487   1403901.0624   5018038.0455   1   9   0.0097   0.0063   0.0122   0.0048   0.0042   0.0082   0.00    5.7
2024/05/18 00:04:30.000   3655333.8424   1403901.0652   5018038.0455   1   9   0.0097   0.0061   0.0122   0.0049   0.0043   0.0081   0.00    6.3
2024/05/18 00:05:00.000   3655333.8403   1403901.0672   5018038.0552   1   9   0.0098   0.0064   0.0122   0.0048   0.0042   0.0081   0.00    6.7
2024/05/18 00:05:30.000   3655333.8481   1403901.0633   5018038.0605   1   9   0.0097   0.0064   0.0122   0.0049   0.0041   0.0081   0.00    7.9
2024/05/18 00:06:00.000   3655333.8557   1403901.0654   5018038.0693   1   9   0.0097   0.0063   0.0123   0.0048   0.0040   0.0081   0.00    9.5
2024/05/18 00:06:30.000   3655333.8598   1403901.0721   5018038.0577   1   9   0.0098   0.0063   0.0122   0.0049   0.0041   0.0080   0.00   10.9
2024/05/18 00:07:00.000   3655333.8646   1403901.0701   5018038.0673   1   9   0.0098   0.0063   0.0122   0.0049   0.0042   0.0080   0.00   13.0
2024/05/18 00:07:30.000   3655333.8483   1403901.0669   5018038.0625   1   9   0.0098   0.0062   0.0122   0.0051   0.0042   0.0080   0.00   16.6
2024/05/18 00:08:00.000   3655333.8569   1403901.0694   5018038.0636   1   9   0.0098   0.0063   0.0122   0.0048   0.0041   0.0080   0.00   15.9
2024/05/18 00:08:30.000   3655333.8483   1403901.0712   5018038.0646   1   9   0.0098   0.0064   0.0122   0.0049   0.0041   0.0080   0.00   15.4
2024/05/18 00:09:00.000   3655333.8492   1403901.0705   5018038.0598   1   9   0.0098   0.0064   0.0122   0.0050   0.0042   0.0079   0.00   15.5
2024/05/18 00:09:30.000   3655333.8311   1403901.0643   5018038.0537   1   9   0.0098   0.0064   0.0122   0.0050   0.0041   0.0080   0.00   18.4
2024/05/18 00:10:00.000   3655333.8320   1403901.0645   5018038.0493   1   9   0.0099   0.0065   0.0122   0.0049   0.0040   0.0079   0.00   20.2
2024/05/18 00:10:30.000   3655333.8379   1403901.0659   5018038.0587   1   9   0.0099   0.0062   0.0122   0.0051   0.0042   0.0079   0.00   21.2
2024/05/18 00:11:00.000   3655333.8395   1403901.0658   5018038.0562   1   9   0.0099   0.0065   0.0122   0.0050   0.0040   0.0079   0.00   21.6
2024/05/18 00:11:30.000   3655333.8488   1403901.0728   5018038.0543   1   9   0.0099   0.0066   0.0123   0.0049   0.0039   0.0078   0.00   20.9
2024/05/18 00:12:00.000   3655333.8297   1403901.0680   5018038.0478   1   9   0.0099   0.0065   0.0122   0.0051   0.0041   0.0078   0.00   22.4
2024/05/18 00:12:30.000   3655333.8411   1403901.0695   5018038.0594   1   9   0.0099   0.0065   0.0123   0.0051   0.0040   0.0078   0.00   22.9
2024/05/18 00:13:00.000   3655333.8431   1403901.0714   5018038.0522   1   9   0.0100   0.0065   0.0123   0.0051   0.0040   0.0078   0.00   22.5
2024/05/18 00:13:30.000   3655333.8419   1403901.0690   5018038.0593   1   9   0.0099   0.0064   0.0123   0.0052   0.0042   0.0077   0.00   21.9
2024/05/18 00:14:00.000   3655333.8456   1403901.0762   5018038.0612   1  10   0.0099   0.0065   0.0114   0.0052   0.0041   0.0072   0.00    2.6
2024/05/18 00:14:30.000   3655333.8395   1403901.0744   5018038.0613   1  10   0.0099   0.0064   0.0113   0.0053   0.0043   0.0072   0.00    3.8
2024/05/18 00:15:00.000   3655333.8370   1403901.0670   5018038.0572   1  10   0.0099   0.0066   0.0113   0.0051   0.0042   0.0071   0.00    5.2
2024/05/18 00:15:30.000   3655333.8528   1403901.0723   5018038.0645   1  10   0.0100   0.0066   0.0114   0.0053   0.0043   0.0070   0.00    6.1
2024/05/18 00:16:00.000   3655333.8563   1403901.0721   5018038.0660   1  10   0.0099   0.0065   0.0113   0.0053   0.0043   0.0071   0.00    6.9
2024/05/18 00:16:30.000   3655333.8354   1403901.0687   5018038.0535   1  10   0.0100   0.0067   0.0113   0.0053   0.0042   0.0070   0.00    7.7
2024/05/18 00:17:00.000   3655333.8582   1403901.0784   5018038.0649   1   9   0.0102   0.0067   0.0124   0.0053   0.0040   0.0076   0.00   16.9
2024/05/18 00:17:30.000   3655333.8409   1403901.0754   5018038.0580   1  10   0.0101   0.0066   0.0113   0.0054   0.0043   0.0070   0.00    7.8
2024/05/18 00:18:00.000   3655333.6962   1403901.0856   5018038.0501   2  11   0.0644   0.0507   0.0227  -0.0356   0.0217   0.0061   0.00    1.7
2024/05/18 00:18:30.000   3655333.6852   1403901.0786   5018038.0466   2  11   0.0625   0.0494   0.0221  -0.0352   0.0210   0.0053   0.00    2.2
2024/05/18 00:19:00.000   3655333.8431   1403901.0734   5018038.0625   1  11   0.0093   0.0064   0.0112   0.0044   0.0039   0.0063   0.00    2.8
2024/05/18 00:19:30.000   3655333.8342   1403901.0667   5018038.0533   1  10   0.0093   0.0064   0.0122   0.0045   0.0044   0.0065   0.00    3.8
2024/05/18 00:20:00.000   3655333.8475   1403901.0730   5018038.0629   1  10   0.0093   0.0064   0.0121   0.0044   0.0044   0.0064   0.00    4.5
2024/05/18 00:20:30.000   3655333.8351   1403901.0674   5018038.0606   1  10   0.0093   0.0065   0.0121   0.0044   0.0042   0.0065   0.00    5.1
2024/05/18 00:21:00.000   3655333.6672   1403901.0996   5018038.0499   2  10   0.0558   0.0453   0.0200  -0.0338   0.0182   0.0058   0.00    2.0
2024/05/18 00:21:30.000   3655333.6811   1403901.1006   5018038.0488   2  10   0.0545   0.0448   0.0196  -0.0337   0.0178   0.0050   0.00    2.3
2024/05/18 00:22:00.000   3655333.6638   1403901.0953   5018038.0405   2  10   0.0535   0.0444   0.0192  -0.0335   0.0174   0.0050   0.00    1.0
2024/05/18 00:22:30.000   3655333.6580   1403901.0975   5018038.0365   2  10   0.0523   0.0439   0.0188  -0.0333   0.0171   0.0042   0.00    1.3
2024/05/18 00:23:00.000   3655333.8358   1403901.0684   5018038.0540   1   9   0.0104   0.0065   0.0120   0.0050   0.0044   0.0067   0.00    9.8
2024/05/18 00:23:30.000   3655333.6477   1403901.1067   5018038.0382   2  10   0.0504   0.0431   0.0182  -0.0330   0.0164   0.0038   0.00    2.0
2024/05/18 00:24:00.000   3655333.8259   1403901.0706   5018038.0462   1  10   0.0103   0.0062   0.0115   0.0045   0.0034   0.0061   0.00    2.6
2024/05/18 00:24:30.000   3655333.8286   1403901.0668   5018038.0540   1  10   0.0102   0.0061   0.0115   0.0046   0.0035   0.0060   0.00    3.1
2024/05/18 00:25:00.000   3655333.8355   1403901.0681   5018038.0625   1  10   0.0102   0.0059   0.0115   0.0047   0.0035   0.0059   0.00    3.6
2024/05/18 00:25:30.000   3655333.8325   1403901.0670   5018038.0542   1  10   0.0102   0.0061   0.0114   0.0045   0.0034   0.0059   0.00    4.1
2024/05/18 00:26:00.000   3655333.8339   1403901.0659   5018038.0542   1  10   0.0102   0.0062   0.0114   0.0045   0.0033   0.0058   0.00    4.7
2024/05/18 00:26:30.000   3655333.8227   1403901.0625   5018038.0514   1  10   0.0102   0.0061   0.0114   0.0046   0.0035   0.0057   0.00    5.6
2024/05/18 00:27:00.000   3655333.8412   1403901.0713   5018038.0491   1  10   0.0102   0.0060   0.0113   0.0046   0.0033   0.0057   0.00    6.0
2024/05/18 00:27:30.000   3655333.8384   1403901.0696   5018038.0503   1  10   0.0103   0.0062   0.0113   0.0045   0.0033   0.0057   0.00    6.3
2024/05/18 00:28:00.000   3655333.8332   1403901.0674   5018038.0598   1  10   0.0103   0.0061   0.0113   0.0045   0.0033   0.0056   0.00    6.6
2024/05/18 00:28:30.000   3655333.8282   1403901.0659   5018038.0535   1  10   0.0103   0.0061   0.0112   0.0044   0.0030   0.0055   0.00    7.3
2024/05/18 00:29:00.000   3655333.8390   1403901.0674   5018038.0528   1  10   0.0102   0.0061   0.0112   0.0045   0.0032   0.0054   0.00    7.7
2024/05/18 00:29:30.000   3655333.8209   1403901.0638   5018038.0502   1  10   0.0103   0.0059   0.0112   0.0045   0.0033   0.0054   0.00    8.1
2024/05/18 00:30:00.000   3655333.8293   1403901.0690   5018038.0510   1  10   0.0103   0.0061   0.0112   0.0044   0.0032   0.0054   0.00    8.3
2024/05/18 00:30:30.000   3655333.8266   1403901.0660   5018038.0519   1  10   0.0103   0.0060   0.0111   0.0046   0.0031   0.0053   0.00    8.9
2024/05/18 00:31:00.000   3655333.8282   1403901.0624   5018038.0555   1  10   0.0103   0.0059   0.0111   0.0045   0.0031   0.0053   0.00    9.3
2024/05/18 00:31:30.000   3655333.8326   1403901.0688   5018038.0529   1  10   0.0103   0.0059   0.0112   0.0044   0.0030   0.0052   0.00    9.5
2024/05/18 00:32:00.000   3655333.8173   1403901.0657   5018038.0461   1  10   0.0102   0.0059   0.0111   0.0045   0.0032   0.0051   0.00    9.7
2024/05/18 00:32:30.000   3655333.8195   1403901.0681   5018038.0483   1  10   0.0103   0.0059   0.0111   0.0044   0.0032   0.0050   0.00   10.1
2024/05/18 00:33:00.000   3655333.8226   1403901.0683   5018038.0479   1  10   0.0103   0.0059   0.0111   0.0045   0.0030   0.0050   0.00    9.8
2024/05/18 00:33:30.000   3655333.8283   1403901.0708   5018038.0516   1  10   0.0103   0.0061   0.0111   0.0044   0.0030   0.0049   0.00    9.4
2024/05/18 00:34:00.000   3655333.8316   1403901.0708   5018038.0527   1  10   0.0103   0.0059   0.0111   0.0044   0.0030   0.0049   0.00    9.2
2024/05/18 00:34:30.000   3655333.8252   1403901.0694   5018038.0610   1  10   0.0103   0.0059   0.0110   0.0045   0.0031   0.0049   0.00    9.3
2024/05/18 00:35:00.000   3655333.8185   1403901.0649   5018038.0544   1  10   0.0103   0.0059   0.0111   0.0044   0.0029   0.0048   0.00    9.1
2024/05/18 00:35:30.000   3655333.8223   1403901.0664   5018038.0567   1  10   0.0103   0.0058   0.0110   0.0045   0.0028   0.0047   0.00    9.0
2024/05/18 00:36:00.000   3655333.8235   1403901.0657   5018038.0622   1  10   0.0103   0.0060   0.0110   0.0044   0.0030   0.0047   0.00    8.9
2024/05/18 00:36:30.000   3655333.8114   1403901.0599   5018038.0608   1  10   0.0103   0.0059   0.0110   0.0043   0.0028   0.0047   0.00    8.9
2024/05/18 00:37:00.000   3655333.7289   1403901.0669   5018038.0610   2  10   0.0322   0.0330   0.0137  -0.0265   0.0107  -0.0027   0.00    1.1
2024/05/18 00:37:30.000   3655333.7322   1403901.0715   5018038.0567   2  10   0.0317   0.0326   0.0136  -0.0263   0.0106  -0.0026   0.00    1.1
2024/05/18 00:38:00.000   3655333.7360   1403901.0714   5018038.0609   2  10   0.0313   0.0323   0.0135  -0.0260   0.0105  -0.0026   0.00    1.1
2024/05/18 00:38:30.000   3655333.7430   1403901.0846   5018038.0721   2  10   0.0308   0.0320   0.0133  -0.0257   0.0103  -0.0035   0.00    1.1
2024/05/18 00:39:00.000   3655333.7544   1403901.0846   5018038.0690   2  10   0.0303   0.0316   0.0132  -0.0254   0.0102  -0.0038   0.00    1.2
2024/05/18 00:39:30.000   3655333.8232   1403901.0664   5018038.0561   1   9   0.0110   0.0059   0.0113   0.0042   0.0026   0.0054   0.00    7.8
2024/05/18 00:40:00.000   3655333.8313   1403901.0692   5018038.0555   1   9   0.0110   0.0059   0.0113   0.0042   0.0026   0.0053   0.00    7.9
2024/05/18 00:40:30.000   3655333.8311   1403901.0731   5018038.0710   1   9   0.0110   0.0059   0.0113   0.0041   0.0027   0.0053   0.00    8.0
2024/05/18 00:41:00.000   3655333.8215   1403901.0640   5018038.0657   1   9   0.0110   0.0058   0.0113   0.0042   0.0027   0.0052   0.00    8.4
2024/05/18 00:41:30.000   3655333.8346   1403901.0737   5018038.0580   1   9   0.0109   0.0057   0.0113   0.0043   0.0026   0.0051   0.00    8.5
2024/05/18 00:42:00.000   3655333.8225   1403901.0679   5018038.0614   1   9   0.0109   0.0058   0.0113   0.0042   0.0027   0.0051   0.00    8.7
2024/05/18 00:42:30.000   3655333.8187   1403901.0640   5018038.0649   1   9   0.0109   0.0057   0.0113   0.0043   0.0027   0.0050   0.00    8.8
2024/05/18 00:43:00.000   3655333.8199   1403901.0632   5018038.0582   1   9   0.0109   0.0058   0.0113   0.0042   0.0027   0.0049   0.00    8.9
2024/05/18 00:43:30.000   3655333.8276   1403901.0679   5018038.0526   1   9   0.0109   0.0059   0.0113   0.0043   0.0028   0.0049   0.00    8.9
2024/05/18 00:44:00.000   3655333.8164   1403901.0613   5018038.0546   1   9   0.0109   0.0058   0.0113   0.0043   0.0025   0.0049   0.00    9.0
2024/05/18 00:44:30.000   3655333.8230   1403901.0654   5018038.0576   1   9   0.0109   0.0058   0.0113   0.0042   0.0025   0.0048   0.00    9.0
2024/05/18 00:45:00.000   3655333.8284   1403901.0641   5018038.0587   1   9   0.0109   0.0058   0.0114   0.0041   0.0027   0.0047   0.00    8.9
2024/05/18 00:45:30.000   3655333.8297   1403901.0678   5018038.0575   1   9   0.0108   0.0056   0.0113   0.0043   0.0026   0.0046   0.00    9.1
2024/05/18 00:46:00.000   3655333.8275   1403901.0643   5018038.0553   1   9   0.0109   0.0056   0.0114   0.0042   0.0027   0.0046   0.00    9.0
2024/05/18 00:46:30.000   3655333.8299   1403901.0645   5018038.0595   1   9   0.0108   0.0057   0.0114   0.0043   0.0025   0.0046   0.00    9.0
2024/05/18 00:47:00.000   3655333.8277   1403901.0661   5018038.0665   1   9   0.0108   0.0058   0.0114   0.0043   0.0029   0.0045   0.00    9.0
2024/05/18 00:47:30.000   3655333.8383   1403901.0686   5018038.0573   1   9   0.0107   0.0058   0.0114   0.0044   0.0026   0.0045   0.00    8.8
2024/05/18 00:48:00.000   3655333.8357   1403901.0664   5018038.0667   1   9   0.0107   0.0057   0.0114   0.0043   0.0027   0.0044   0.00    8.7
2024/05/18 00:48:30.000   3655333.8338   1403901.0665   5018038.0634   1   9   0.0107   0.0058   0.0114   0.0041   0.0027   0.0043   0.00    8.5
2024/05/18 00:49:00.000   3655333.8217   1403901.0639   5018038.0537   1   9   0.0107   0.0056   0.0115   0.0043   0.0028   0.0043   0.00    8.5
2024/05/18 00:49:30.000   3655333.8330   1403901.0642   5018038.0629   1   9   0.0107   0.0057   0.0115   0.0042   0.0027   0.0043   0.00    8.5
2024/05/18 00:50:00.000   3655333.8354   1403901.0649   5018038.0637   1   9   0.0107   0.0057   0.0115   0.0042   0.0026   0.0042   0.00    8.5
2024/05/18 00:50:30.000   3655333.8386   1403901.0646   5018038.0656   1   9   0.0107   0.0057   0.0115   0.0042   0.0027   0.0042   0.00    8.5
2024/05/18 00:51:00.000   3655333.8408   1403901.0678   5018038.0660   1   9   0.0107   0.0057   0.0116   0.0042   0.0028   0.0041   0.00    8.4
2024/05/18 00:51:30.000   3655333.8275   1403901.0611   5018038.0656   1   9   0.0107   0.0054   0.0116   0.0042   0.0029   0.0041   0.00    8.6
2024/05/18 00:52:00.000   3655333.8474   1403901.0706   5018038.0646   1   9   0.0107   0.0057   0.0116   0.0041   0.0028   0.0040   0.00    8.5
2024/05/18 00:52:30.000   3655333.8337   1403901.0646   5018038.0657   1   9   0.0107   0.0056   0.0116   0.0042   0.0029   0.0040   0.00    8.5
2024/05/18 00:53:00.000   3655333.8310   1403901.0629   5018038.0657   1   9   0.0107   0.0057   0.0116   0.0041   0.0027   0.0041   0.00    8.5
2024/05/18 00:53:30.000   3655333.8514   1403901.0736   5018038.0585   1   9   0.0106   0.0056   0.0117   0.0041   0.0029   0.0040   0.00    8.3
2024/05/18 00:54:00.000   3655333.8379   1403901.0635   5018038.0598   1   9   0.0106   0.0057   0.0117   0.0042   0.0030   0.0039   0.00    8.3
2024/05/18 00:54:30.000   3655333.8410   1403901.0591   5018038.0581   1   9   0.0106   0.0057   0.0117   0.0043   0.0029   0.0038   0.00    8.2
2024/05/18 00:55:00.000   3655333.8189   1403901.0643   5018038.0645   2  10   0.0194   0.0215   0.0127  -0.0158   0.0068   0.0030   0.00    1.1
2024/05/18 00:55:30.000   3655333.8202   1403901.0619   5018038.0629   2  10   0.0191   0.0213   0.0122  -0.0155   0.0067   0.0031   0.00    1.2
2024/05/18 00:56:00.000   3655333.8229   1403901.0590   5018038.0614   2  10   0.0189   0.0210   0.0121  -0.0153   0.0066   0.0032   0.00    1.4
2024/05/18 00:56:30.000   3655333.8279   1403901.0582   5018038.0626   2  10   0.0186   0.0207   0.0120  -0.0150   0.0066   0.0033   0.00    1.5
2024/05/18 00:57:00.000   3655333.8218   1403901.0585   5018038.0653   2  10   0.0184   0.0205   0.0120  -0.0147   0.0065   0.0034   0.00    1.7
2024/05/18 00:57:30.000   3655333.8380   1403901.0660   5018038.0718   2  10   0.0181   0.0202   0.0119  -0.0145   0.0065   0.0034   0.00    1.8
2024/05/18 00:58:00.000   3655333.8312   1403901.0598   5018038.0691   2  10   0.0179   0.0200   0.0119  -0.0142   0.0063   0.0035   0.00    2.0
2024/05/18 00:58:30.000   3655333.8393   1403901.0705   5018038.0688   2  10   0.0177   0.0197   0.0119  -0.0140   0.0063   0.0036   0.00    2.2
2024/05/18 00:59:00.000   3655333.8227   1403901.0680   5018038.0659   2  10   0.0174   0.0194   0.0118  -0.0137   0.0063   0.0037   0.00    2.4
2024/05/18 00:59:30.000   3655333.8321   1403901.0592   5018038.0655   1  10   0.0105   0.0055   0.0108   0.0041   0.0032   0.0038   0.00    2.6
2024/05/18 01:00:00.000   3655333.8316   1403901.0585   5018038.0656   1  10   0.0104   0.0055   0.0109   0.0041   0.0033   0.0039   0.00    2.8
2024/05/18 01:00:30.000   3655333.8397   1403901.0598   5018038.0638   1  10   0.0105   0.0055   0.0109   0.0041   0.0034   0.0039   0.00    3.0
2024/05/18 01:01:00.000   3655333.8310   1403901.0595   5018038.0634   1  10   0.0104   0.0055   0.0109   0.0042   0.0036   0.0039   0.00    3.2
2024/05/18 01:01:30.000   3655333.8261   1403901.0582   5018038.0640   1  10   0.0104   0.0055   0.0109   0.0041   0.0034   0.0040   0.00    3.4
2024/05/18 01:02:00.000   3655333.8293   1403901.0608   5018038.0677   1  10   0.0104   0.0056   0.0109   0.0042   0.0035   0.0039   0.00    3.6
2024/05/18 01:02:30.000   3655333.8348   1403901.0611   5018038.0651   1  10   0.0104   0.0056   0.0109   0.0041   0.0034   0.0040   0.00    3.8
2024/05/18 01:03:00.000   3655333.8318   1403901.0599   5018038.0727   1  10   0.0103   0.0054   0.0109   0.0042   0.0035   0.0040   0.00    4.0
2024/05/18 01:03:30.000   3655333.8384   1403901.0593   5018038.0699   1  10   0.0104   0.0056   0.0109   0.0041   0.0036   0.0040   0.00    4.2
2024/05/18 01:04:00.000   3655333.8335   1403901.0578   5018038.0692   1  10   0.0103   0.0056   0.0109   0.0042   0.0035   0.0040   0.00    4.4
2024/05/18 01:04:30.000   3655333.8392   1403901.0632   5018038.0637   1  10   0.0103   0.0054   0.0110   0.0042   0.0037   0.0040   0.00    4.6
2024/05/18 01:05:00.000   3655333.8274   1403901.0608   5018038.0666   1  10   0.0103   0.0055   0.0110   0.0042   0.0037   0.0041   0.00    4.7
2024/05/18 01:05:30.000   3655333.8181   1403901.0597   5018038.0712   1  10   0.0103   0.0055   0.0110   0.0042   0.0037   0.0041   0.00    5.1
2024/05/18 01:06:00.000   3655333.8197   1403901.0566   5018038.0687   1  10   0.0102   0.0054   0.0110   0.0041   0.0039   0.0041   0.00    5.4
2024/05/18 01:06:30.000   3655333.8204   1403901.0595   5018038.0686   1  10   0.0102   0.0056   0.0110   0.0042   0.0037   0.0042   0.00    5.7
2024/05/18 01:07:00.000   3655333.8264   1403901.0588   5018038.0654   1  10   0.0102   0.0054   0.0111   0.0041   0.0039   0.0042   0.00    5.9
2024/05/18 01:07:30.000   3655333.8199   1403901.0528   5018038.0575   1  10   0.0102   0.0055   0.0111   0.0042   0.0039   0.0042   0.00    6.3
2024/05/18 01:08:00.000   3655333.8189   1403901.0505   5018038.0578   1  10   0.0102   0.0055   0.0111   0.0040   0.0041   0.0043   0.00    6.7
2024/05/18 01:08:30.000   3655333.8099   1403901.0421   5018038.0645   2  10   0.0143   0.0156   0.0136  -0.0095   0.0053   0.0048   0.00    1.3
2024/05/18 01:09:00.000   3655333.8185   1403901.0507   5018038.0686   2  10   0.0141   0.0154   0.0128  -0.0093   0.0053   0.0050   0.00    1.5
2024/05/18 01:09:30.000   3655333.8146   1403901.0491   5018038.0678   2  10   0.0140   0.0152   0.0125  -0.0092   0.0056   0.0051   0.00    1.8
2024/05/18 01:10:00.000   3655333.8092   1403901.0428   5018038.0629   2  10   0.0139   0.0151   0.0124  -0.0090   0.0054   0.0052   0.00    2.2
2024/05/18 01:10:30.000   3655333.8282   1403901.0622   5018038.0634   1  10   0.0101   0.0055   0.0112   0.0041   0.0043   0.0045   0.00    2.6
2024/05/18 01:11:00.000   3655333.8279   1403901.0604   5018038.0607   1  10   0.0101   0.0056   0.0112   0.0043   0.0039   0.0046   0.00    2.9
2024/05/18 01:11:30.000   3655333.8150   1403901.0519   5018038.0536   1   9   0.0101   0.0056   0.0124   0.0042   0.0048   0.0042   0.00    3.4
2024/05/18 01:12:00.000   3655333.8228   1403901.0575   5018038.0509   1   9   0.0101   0.0057   0.0124   0.0041   0.0048   0.0043   0.00    3.8
2024/05/18 01:12:30.000   3655333.8194   1403901.0530   5018038.0517   1   9   0.0100   0.0057   0.0124   0.0041   0.0047   0.0044   0.00    4.1
2024/05/18 01:13:00.000   3655333.8194   1403901.0553   5018038.0505   1   9   0.0100   0.0057   0.0124   0.0043   0.0048   0.0045   0.00    4.5
2024/05/18 01:13:30.000   3655333.8312   1403901.0633   5018038.0496   1   9   0.0100   0.0056   0.0123   0.0043   0.0048   0.0045   0.00    4.9
2024/05/18 01:14:00.000   3655333.8129   1403901.0493   5018038.0436   1   9   0.0100   0.0056   0.0124   0.0042   0.0049   0.0047   0.00    5.4
2024/05/18 01:14:30.000   3655333.8212   1403901.0546   5018038.0513   1   9   0.0100   0.0056   0.0124   0.0043   0.0048   0.0047   0.00    5.8
2024/05/18 01:15:00.000   3655333.8316   1403901.0595   5018038.0484   1   9   0.0100   0.0055   0.0124   0.0044   0.0050   0.0048   0.00    6.1
2024/05/18 01:15:30.000   3655333.8249   1403901.0585   5018038.0513   1   9   0.0100   0.0054   0.0124   0.0043   0.0049   0.0049   0.00    6.4
2024/05/18 01:16:00.000   3655333.8309   1403901.0616   5018038.0533   1   9   0.0099   0.0057   0.0124   0.0043   0.0049   0.0050   0.00    6.7
2024/05/18 01:16:30.000   3655333.8235   1403901.0573   5018038.0468   1   9   0.0099   0.0057   0.0123   0.0043   0.0048   0.0051   0.00    7.0
2024/05/18 01:17:00.000   3655333.8124   1403901.0542   5018038.0505   1   9   0.0099   0.0057   0.0124   0.0043   0.0049   0.0052   0.00    7.3
2024/05/18 01:17:30.000   3655333.8209   1403901.0541   5018038.0551   1   9   0.0099   0.0056   0.0123   0.0044   0.0050   0.0052   0.00    7.6
2024/05/18 01:18:00.000   3655333.8214   1403901.0567   5018038.0537   1   9   0.0099   0.0056   0.0123   0.0043   0.0049   0.0054   0.00    8.0
2024/05/18 01:18:30.000   3655333.8111   1403901.0519   5018038.0449   1   9   0.0099   0.0057   0.0124   0.0042   0.0050   0.0055   0.00    8.5
2024/05/18 01:19:00.000   3655333.8131   1403901.0562   5018038.0386   1   9   0.0099   0.0057   0.0124   0.0045   0.0050   0.0055   0.00    9.0
2024/05/18 01:19:30.000   3655333.8193   1403901.0587   5018038.0456   1   9   0.0099   0.0057   0.0124   0.0044   0.0049   0.0056   0.00    9.4
2024/05/18 01:20:00.000   3655333.8221   1403901.0633   5018038.0525   1   9   0.0098   0.0055   0.0124   0.0044   0.0052   0.0057   0.00    9.7
2024/05/18 01:20:30.000   3655333.8214   1403901.0632   5018038.0582   1   9   0.0098   0.0057   0.0124   0.0045   0.0051   0.0058   0.00   10.0
2024/05/18 01:21:00.000   3655333.8195   1403901.0629   5018038.0479   1   9   0.0098   0.0058   0.0125   0.0045   0.0051   0.0059   0.00   10.2
2024/05/18 01:21:30.000   3655333.8294   1403901.0714   5018038.0659   1   9   0.0098   0.0056   0.0125   0.0046   0.0052   0.0059   0.00   10.1
2024/05/18 01:22:00.000   3655333.8218   1403901.0634   5018038.0596   1   9   0.0098   0.0056   0.0125   0.0046   0.0051   0.0060   0.00   10.2
2024/05/18 01:22:30.000   3655333.8303   1403901.0687   5018038.0546   1   9   0.0098   0.0058   0.0125   0.0046   0.0052   0.0061   0.00   10.2
2024/05/18 01:23:00.000   3655333.8295   1403901.0645   5018038.0583   1   9   0.0098   0.0056   0.0125   0.0044   0.0051   0.0062   0.00   10.4
2024/05/18 01:23:30.000   3655333.8262   1403901.0583   5018038.0612   1   9   0.0098   0.0055   0.0125   0.0047   0.0052   0.0062   0.00   10.6
2024/05/18 01:24:00.000   3655333.8318   1403901.0653   5018038.0617   1   9   0.0098   0.0056   0.0125   0.0046   0.0053   0.0063   0.00   10.7
2024/05/18 01:24:30.000   3655333.8324   1403901.0623   5018038.0544   1   9   0.0098   0.0056   0.0126   0.0046   0.0054   0.0065   0.00   10.9
2024/05/18 01:25:00.000   3655333.8373   1403901.0657   5018038.0636   1   9   0.0098   0.0057   0.0126   0.0046   0.0054   0.0066   0.00   11.0
2024/05/18 01:25:30.000   3655333.8399   1403901.0674   5018038.0621   1   9   0.0098   0.0057   0.0126   0.0046   0.0054   0.0066   0.00   10.9
2024/05/18 01:26:00.000   3655333.8334   1403901.0591   5018038.0551   1   9   0.0098   0.0056   0.0127   0.0047   0.0054   0.0067   0.00   11.1
2024/05/18 01:26:30.000   3655333.8365   1403901.0633   5018038.0572   1   9   0.0098   0.0057   0.0127   0.0048   0.0055   0.0068   0.00   11.3
2024/05/18 01:27:00.000   3655333.8347   1403901.0569   5018038.0572   1   9   0.0098   0.0058   0.0127   0.0049   0.0056   0.0068   0.00   11.5
2024/05/18 01:27:30.000   3655333.8272   1403901.0572   5018038.0542   1   9   0.0098   0.0057   0.0128   0.0048   0.0056   0.0069   0.00   11.8
2024/05/18 01:28:00.000   3655333.8390   1403901.0620   5018038.0581   1   9   0.0098   0.0058   0.0128   0.0049   0.0056   0.0070   0.00   11.7
2024/05/18 01:28:30.000   3655333.8258   1403901.0526   5018038.0555   1   9   0.0099   0.0057   0.0128   0.0049   0.0057   0.0071   0.00   11.8
2024/05/18 01:29:00.000   3655333.8334   1403901.0584   5018038.0592   1   9   0.0099   0.0059   0.0129   0.0048   0.0056   0.0072   0.00   11.8
2024/05/18 01:29:30.000   3655333.8345   1403901.0571   5018038.0611   1   9   0.0099   0.0059   0.0129   0.0049   0.0057   0.0073   0.00   11.9
2024/05/18 01:30:00.000   3655333.8402   1403901.0600   5018038.0515   1   9   0.0099   0.0059   0.0130   0.0050   0.0057   0.0073   0.00   11.8
2024/05/18 01:30:30.000   3655333.8389   1403901.0568   5018038.0525   1   9   0.0099   0.0060   0.0130   0.0050   0.0058   0.0074   0.00   11.7
2024/05/18 01:31:00.000   3655333.8595   1403901.0700   5018038.0646   1   9   0.0099   0.0055   0.0131   0.0050   0.0059   0.0075   0.00   11.2
2024/05/18 01:31:30.000   3655333.8472   1403901.0664   5018038.0699   1   9   0.0099   0.0056   0.0131   0.0050   0.0058   0.0076   0.00   10.9
2024/05/18 01:32:00.000   3655333.8395   1403901.0575   5018038.0673   1   9   0.0099   0.0059   0.0131   0.0051   0.0058   0.0076   0.00   11.1
2024/05/18 01:32:30.000   3655333.8323   1403901.0569   5018038.0611   1   9   0.0099   0.0057   0.0132   0.0051   0.0059   0.0077   0.00   11.0
2024/05/18 01:33:00.000   3655333.8371   1403901.0578   5018038.0542   1   9   0.0100   0.0059   0.0132   0.0052   0.0060   0.0078   0.00   11.0
2024/05/18 01:33:30.000   3655333.8444   1403901.0623   5018038.0645   1   9   0.0100   0.0058   0.0133   0.0052   0.0060   0.0079   0.00   10.9
2024/05/18 01:34:00.000   3655333.8394   1403901.0580   5018038.0624   1   9   0.0100   0.0057   0.0134   0.0051   0.0059   0.0080   0.00   10.9
2024/05/18 01:34:30.000   3655333.8304   1403901.0490   5018038.0489   1   9   0.0100   0.0056   0.0133   0.0053   0.0061   0.0081   0.00   11.0
2024/05/18 01:35:00.000   3655333.8258   1403901.0449   5018038.0473   2  10   0.0117   0.0101   0.0145   0.0033   0.0067   0.0095   0.00    1.1
2024/05/18 01:35:30.000   3655333.8315   1403901.0447   5018038.0522   2  10   0.0114   0.0101   0.0145   0.0029   0.0066   0.0093   0.00    1.2
2024/05/18 01:36:00.000   3655333.8424   1403901.0534   5018038.0551   2  10   0.0112   0.0101   0.0145   0.0030   0.0065   0.0094   0.00    1.3
2024/05/18 01:36:30.000   3655333.8446   1403901.0555   5018038.0569   2  10   0.0113   0.0100   0.0145   0.0027   0.0066   0.0093   0.00    1.4
2024/05/18 01:37:00.000   3655333.8397   1403901.0466   5018038.0556   2  10   0.0112   0.0099   0.0146   0.0026   0.0066   0.0094   0.00    1.5
2024/05/18 01:37:30.000   3655333.8454   1403901.0568   5018038.0567   2  10   0.0112   0.0098   0.0146   0.0031   0.0066   0.0094   0.00    1.6
2024/05/18 01:38:00.000   3655333.8440   1403901.0544   5018038.0484   2  10   0.0111   0.0098   0.0147   0.0031   0.0066   0.0096   0.00    1.7
2024/05/18 01:38:30.000   3655333.8457   1403901.0573   5018038.0498   2  10   0.0111   0.0096   0.0147   0.0027   0.0066   0.0095   0.00    1.8
2024/05/18 01:39:00.000   3655333.8494   1403901.0608   5018038.0631   2  10   0.0111   0.0097   0.0147   0.0032   0.0066   0.0097   0.00    1.9
2024/05/18 01:39:30.000   3655333.8499   1403901.0597   5018038.0717   2  10   0.0112   0.0096   0.0148   0.0036   0.0066   0.0097   0.00    2.0
2024/05/18 01:40:00.000   3655333.8449   1403901.0573   5018038.0697   2  10   0.0111   0.0096   0.0148   0.0033   0.0067   0.0098   0.00    2.1
2024/05/18 01:40:30.000   3655333.8438   1403901.0540   5018038.0545   2  10   0.0111   0.0095   0.0149   0.0038   0.0066   0.0098   0.00    2.2
2024/05/18 01:41:00.000   3655333.8363   1403901.0525   5018038.0573   2  10   0.0111   0.0095   0.0149   0.0037   0.0067   0.0099   0.00    2.3
2024/05/18 01:41:30.000   3655333.8466   1403901.0576   5018038.0556   2  10   0.0111   0.0095   0.0150   0.0037   0.0067   0.0100   0.00    2.4
2024/05/18 01:42:00.000   3655333.8564   1403901.0680   5018038.0634   1  10   0.0095   0.0054   0.0139   0.0051   0.0061   0.0088   0.00    2.6
2024/05/18 01:42:30.000   3655333.8623   1403901.0717   5018038.0684   1  10   0.0096   0.0058   0.0140   0.0048   0.0063   0.0087   0.00    2.7
2024/05/18 01:43:00.000   3655333.8641   1403901.0742   5018038.0674   1  10   0.0096   0.0057   0.0141   0.0050   0.0063   0.0089   0.00    2.8
2024/05/18 01:43:30.000   3655333.8633   1403901.0756   5018038.0713   1  10   0.0097   0.0060   0.0141   0.0050   0.0063   0.0089   0.00    3.0
2024/05/18 01:44:00.000   3655333.8670   1403901.0748   5018038.0742   1  10   0.0097   0.0061   0.0142   0.0050   0.0064   0.0090   0.00    3.1
2024/05/18 01:44:30.000   3655333.8605   1403901.0754   5018038.0745   1  10   0.0097   0.0059   0.0143   0.0052   0.0064   0.0091   0.00    3.2
2024/05/18 01:45:00.000   3655333.8606   1403901.0716   5018038.0763   1  10   0.0098   0.0057   0.0143   0.0050   0.0065   0.0091   0.00    3.3
2024/05/18 01:45:30.000   3655333.8527   1403901.0679   5018038.0698   1  10   0.0097   0.0058   0.0144   0.0053   0.0063   0.0093   0.00    3.5
2024/05/18 01:46:00.000   3655333.8630   1403901.0783   5018038.0840   1  10   0.0098   0.0059   0.0145   0.0052   0.0065   0.0093   0.00    3.6
2024/05/18 01:46:30.000   3655333.8536   1403901.0720   5018038.0645   1  10   0.0099   0.0058   0.0145   0.0051   0.0065   0.0093   0.00    3.8
2024/05/18 01:47:00.000   3655333.8652   1403901.0688   5018038.0752   1  10   0.0098   0.0057   0.0146   0.0052   0.0065   0.0095   0.00    4.0
2024/05/18 01:47:30.000   3655333.8652   1403901.0713   5018038.0736   1  10   0.0099   0.0060   0.0147   0.0052   0.0067   0.0095   0.00    4.2
2024/05/18 01:48:00.000   3655333.8685   1403901.0752   5018038.0761   1  10   0.0099   0.0060   0.0147   0.0054   0.0066   0.0098   0.00    4.3
2024/05/18 01:48:30.000   3655333.8625   1403901.0673   5018038.0655   1  10   0.0099   0.0055   0.0147   0.0055   0.0066   0.0096   0.00    4.5
2024/05/18 01:49:00.000   3655333.8665   1403901.0757   5018038.0677   1  10   0.0100   0.0057   0.0149   0.0055   0.0067   0.0097   0.00    4.7
2024/05/18 01:49:30.000   3655333.8568   1403901.0667   5018038.0576   1  10   0.0101   0.0058   0.0149   0.0053   0.0068   0.0098   0.00    4.8
2024/05/18 01:50:00.000   3655333.8689   1403901.0729   5018038.0712   1  10   0.0099   0.0060   0.0149   0.0054   0.0068   0.0100   0.00    5.0
2024/05/18 01:50:30.000   3655333.8639   1403901.0706   5018038.0645   1  10   0.0101   0.0058   0.0150   0.0055   0.0068   0.0100   0.00    5.2
2024/05/18 01:51:00.000   3655333.8609   1403901.0707   5018038.0680   1  10   0.0101   0.0059   0.0150   0.0055   0.0068   0.0101   0.00    5.4
2024/05/18 01:51:30.000   3655333.8653   1403901.0726   5018038.0720   1  10   0.0101   0.0058   0.0151   0.0056   0.0069   0.0102   0.00    5.6
2024/05/18 01:52:00.000   3655333.8647   1403901.0724   5018038.0689   1  10   0.0103   0.0059   0.0152   0.0055   0.0070   0.0101   0.00    5.8
2024/05/18 01:52:30.000   3655333.8684   1403901.0740   5018038.0692   1  10   0.0102   0.0059   0.0152   0.0057   0.0070   0.0103   0.00    6.0
2024/05/18 01:53:00.000   3655333.8713   1403901.0755   5018038.0758   1  10   0.0103   0.0061   0.0153   0.0057   0.0070   0.0103   0.00    6.2
2024/05/18 01:53:30.000   3655333.8653   1403901.0736   5018038.0803   1  10   0.0103   0.0057   0.0153   0.0058   0.0069   0.0105   0.00    6.5
2024/05/18 01:54:00.000   3655333.8680   1403901.0714   5018038.0795   1  10   0.0104   0.0059   0.0154   0.0056   0.0070   0.0105   0.00    6.7
2024/05/18 01:54:30.000   3655333.8596   1403901.0690   5018038.0610   1  10   0.0103   0.0060   0.0155   0.0059   0.0070   0.0106   0.00    6.9
2024/05/18 01:55:00.000   3655333.8678   1403901.0721   5018038.0780   1  10   0.0104   0.0060   0.0155   0.0057   0.0071   0.0107   0.00    7.2
2024/05/18 01:55:30.000   3655333.8703   1403901.0750   5018038.0779   1  10   0.0105   0.0060   0.0156   0.0058   0.0071   0.0107   0.00    7.4
2024/05/18 01:56:00.000   3655333.8722   1403901.0722   5018038.0828   1  10   0.0106   0.0061   0.0156   0.0060   0.0072   0.0108   0.00    7.8
2024/05/18 01:56:30.000   3655333.8574   1403901.0625   5018038.0712   1  10   0.0106   0.0062   0.0157   0.0058   0.0072   0.0109   0.00    7.9
2024/05/18 01:57:00.000   3655333.8646   1403901.0712   5018038.0718   1  10   0.0106   0.0059   0.0157   0.0059   0.0072   0.0110   0.00    8.2
2024/05/18 01:57:30.000   3655333.8611   1403901.0707   5018038.0748   1  10   0.0106   0.0059   0.0158   0.0060   0.0072   0.0109   0.00    8.5
2024/05/18 01:58:00.000   3655333.8493   1403901.0160   5018038.0424   2  11   0.0118   0.0084   0.0165   0.0055   0.0072   0.0119   0.00    1.1
2024/05/18 01:58:30.000   3655333.8606   1403901.0241   5018038.0552   2  11   0.0117   0.0085   0.0159   0.0053   0.0067   0.0116   0.00    1.3
2024/05/18 01:59:00.000   3655333.8729   1403901.0264   5018038.0746   2  10   0.0124   0.0085   0.0169   0.0054   0.0068   0.0126   0.00    1.4
2024/05/18 01:59:30.000   3655333.8602   1403901.0237   5018038.0611   2  10   0.0124   0.0083   0.0168   0.0053   0.0067   0.0125   0.00    1.6
2024/05/18 02:00:00.000   3655333.8605   1403901.0240   5018038.0587   2  10   0.0124   0.0082   0.0167   0.0051   0.0067   0.0125   0.00    1.7
2024/05/18 02:00:30.000   3655333.8550   1403901.0191   5018038.0479   2  10   0.0123   0.0082   0.0166   0.0054   0.0065   0.0124   0.00    1.9
2024/05/18 02:01:00.000   3655333.8553   1403901.0156   5018038.0517   2  10   0.0123   0.0083   0.0165   0.0053   0.0065   0.0124   0.00    2.0
2024/05/18 02:01:30.000   3655333.8649   1403901.0165   5018038.0637   2  10   0.0123   0.0082   0.0165   0.0053   0.0065   0.0124   0.00    2.2
2024/05/18 02:02:00.000   3655333.8441   1403901.0098   5018038.0428   2  10   0.0123   0.0082   0.0164   0.0052   0.0064   0.0123   0.00    2.4
2024/05/18 02:02:30.000   3655333.8650   1403901.0670   5018038.0758   1  10   0.0112   0.0057   0.0154   0.0059   0.0065   0.0113   0.00    2.6
2024/05/18 02:03:00.000   3655333.8637   1403901.0683   5018038.0848   1  10   0.0111   0.0057   0.0153   0.0058   0.0065   0.0113   0.00    2.8
2024/05/18 02:03:30.000   3655333.8637   1403901.0692   5018038.0750   1  10   0.0112   0.0058   0.0153   0.0059   0.0065   0.0113   0.00    3.0
2024/05/18 02:04:00.000   3655333.8522   1403901.0594   5018038.0743   1  10   0.0111   0.0059   0.0153   0.0059   0.0065   0.0113   0.00    3.1
2024/05/18 02:04:30.000   3655333.8599   1403901.0670   5018038.0711   1  10   0.0110   0.0059   0.0152   0.0058   0.0065   0.0114   0.00    3.3
2024/05/18 02:05:00.000   3655333.8615   1403901.0678   5018038.0791   1  10   0.0112   0.0058   0.0153   0.0059   0.0064   0.0112   0.00    3.5
2024/05/18 02:05:30.000   3655333.8400   1403901.0637   5018038.0585   1  10   0.0110   0.0059   0.0152   0.0058   0.0064   0.0113   0.00    3.6
2024/05/18 02:06:00.000   3655333.8531   1403901.0666   5018038.0727   1  10   0.0111   0.0062   0.0151   0.0059   0.0064   0.0113   0.00    3.8
2024/05/18 02:06:30.000   3655333.8609   1403901.0687   5018038.0828   1  10   0.0111   0.0062   0.0151   0.0058   0.0065   0.0113   0.00    4.0
2024/05/18 02:07:00.000   3655333.8519   1403901.0657   5018038.0671   1  10   0.0111   0.0061   0.0151   0.0058   0.0064   0.0112   0.00    4.2
2024/05/18 02:07:30.000   3655333.8584   1403901.0710   5018038.0814   1  10   0.0112   0.0060   0.0151   0.0059   0.0064   0.0112   0.00    4.4
2024/05/18 02:08:00.000   3655333.8695   1403901.0734   5018038.0976   1  10   0.0111   0.0057   0.0150   0.0059   0.0064   0.0113   0.00    4.6
2024/05/18 02:08:30.000   3655333.8597   1403901.0668   5018038.0850   1  10   0.0112   0.0058   0.0149   0.0060   0.0064   0.0112   0.00    4.9
2024/05/18 02:09:00.000   3655333.8586   1403901.0664   5018038.0826   1  10   0.0111   0.0057   0.0149   0.0059   0.0064   0.0112   0.00    5.0
2024/05/18 02:09:30.000   3655333.8754   1403901.0733   5018038.0929   1  10   0.0111   0.0062   0.0149   0.0059   0.0062   0.0112   0.00    5.3
2024/05/18 02:10:00.000   3655333.8699   1403901.0739   5018038.0824   1  10   0.0111   0.0059   0.0148   0.0058   0.0064   0.0112   0.00    5.5
2024/05/18 02:10:30.000   3655333.8745   1403901.0753   5018038.0884   1  10   0.0111   0.0061   0.0147   0.0060   0.0062   0.0111   0.00    5.6
2024/05/18 02:11:00.000   3655333.8736   1403901.0734   5018038.0882   1  10   0.0111   0.0056   0.0147   0.0059   0.0064   0.0112   0.00    5.9
2024/05/18 02:11:30.000   3655333.8669   1403901.0713   5018038.0828   1  10   0.0111   0.0058   0.0147   0.0059   0.0063   0.0111   0.00    6.1
2024/05/18 02:12:00.000   3655333.8641   1403901.0697   5018038.0797   1  10   0.0111   0.0063   0.0147   0.0057   0.0062   0.0111   0.00    6.3
2024/05/18 02:12:30.000   3655333.8623   1403901.0700   5018038.0740   1  10   0.0111   0.0060   0.0146   0.0059   0.0062   0.0111   0.00    6.5
2024/05/18 02:13:00.000   3655333.8585   1403901.0684   5018038.0624   1  10   0.0111   0.0060   0.0146   0.0059   0.0060   0.0111   0.00    6.7
2024/05/18 02:13:30.000   3655333.8595   1403901.0717   5018038.0670   1  10   0.0111   0.0055   0.0145   0.0061   0.0064   0.0110   0.00    6.9
2024/05/18 02:14:00.000   3655333.8674   1403901.0719   5018038.0748   1  10   0.0110   0.0061   0.0144   0.0059   0.0061   0.0110   0.00    7.1
2024/05/18 02:14:30.000   3655333.8680   1403901.0717   5018038.0675   1  10   0.0111   0.0059   0.0144   0.0059   0.0061   0.0110   0.00    7.3
2024/05/18 02:15:00.000   3655333.8689   1403901.0732   5018038.0645   1  10   0.0111   0.0060   0.0143   0.0060   0.0061   0.0109   0.00    7.5
2024/05/18 02:15:30.000   3655333.8755   1403901.0724   5018038.0690   1  10   0.0111   0.0063   0.0143   0.0058   0.0061   0.0109   0.00    7.7
2024/05/18 02:16:00.000   3655333.8704   1403901.0693   5018038.0707   1  10   0.0110   0.0062   0.0142   0.0058   0.0060   0.0109   0.00    7.9
2024/05/18 02:16:30.000   3655333.8683   1403901.0690   5018038.0688   1  10   0.0109   0.0060   0.0142   0.0059   0.0060   0.0109   0.00    8.2
2024/05/18 02:17:00.000   3655333.8426   1403901.0600   5018038.0429   1  10   0.0110   0.0063   0.0141   0.0059   0.0059   0.0108   0.00    8.3
2024/05/18 02:17:30.000   3655333.8598   1403901.0640   5018038.0601   1  10   0.0110   0.0061   0.0141   0.0059   0.0060   0.0108   0.00    8.5
2024/05/18 02:18:00.000   3655333.8620   1403901.0695   5018038.0656   1  10   0.0110   0.0061   0.0140   0.0059   0.0060   0.0108   0.00    8.8
2024/05/18 02:18:30.000   3655333.8666   1403901.0721   5018038.0692   1  10   0.0110   0.0060   0.0140   0.0060   0.0059   0.0107   0.00    9.1
2024/05/18 02:19:00.000   3655333.8713   1403901.0746   5018038.0773   1  10   0.0109   0.0057   0.0139   0.0061   0.0059   0.0107   0.00    9.2
2024/05/18 02:19:30.000   3655333.8729   1403901.0716   5018038.0810   1  10   0.0109   0.0057   0.0139   0.0061   0.0059   0.0106   0.00    9.4
2024/05/18 02:20:00.000   3655333.8693   1403901.0711   5018038.0724   1  10   0.0110   0.0061   0.0138   0.0059   0.0057   0.0106   0.00    9.5
2024/05/18 02:20:30.000   3655333.8786   1403901.0775   5018038.0790   1  10   0.0109   0.0057   0.0137   0.0061   0.0060   0.0106   0.00    9.7
2024/05/18 02:21:00.000   3655333.8866   1403901.0837   5018038.0800   1  10   0.0109   0.0060   0.0137   0.0060   0.0059   0.0105   0.00    9.9
2024/05/18 02:21:30.000   3655333.8793   1403901.0848   5018038.0779   1  10   0.0109   0.0061   0.0136   0.0059   0.0058   0.0105   0.00   10.2
2024/05/18 02:22:00.000   3655333.8720   1403901.0792   5018038.0709   1  10   0.0109   0.0059   0.0135   0.0060   0.0058   0.0105   0.00   10.4
2024/05/18 02:22:30.000   3655333.8633   1403901.0717   5018038.0697   1  10   0.0109   0.0059   0.0135   0.0061   0.0058   0.0104   0.00   10.7
2024/05/18 02:23:00.000   3655333.8554   1403901.0721   5018038.0573   1  10   0.0109   0.0061   0.0134   0.0059   0.0057   0.0105   0.00   10.9
2024/05/18 02:23:30.000   3655333.8673   1403901.0763   5018038.0726   1  10   0.0109   0.0064   0.0134   0.0059   0.0056   0.0104   0.00   11.1
2024/05/18 02:24:00.000   3655333.8666   1403901.0740   5018038.0745   1  10   0.0108   0.0060   0.0134   0.0061   0.0056   0.0103   0.00   11.4
2024/05/18 02:24:30.000   3655333.8611   1403901.0789   5018038.0679   1  10   0.0108   0.0058   0.0133   0.0060   0.0058   0.0103   0.00   11.8
2024/05/18 02:25:00.000   3655333.8573   1403901.0758   5018038.0654   1  10   0.0108   0.0061   0.0133   0.0059   0.0057   0.0103   0.00   12.1
2024/05/18 02:25:30.000   3655333.8603   1403901.0739   5018038.0647   1  10   0.0107   0.0059   0.0132   0.0061   0.0056   0.0102   0.00   12.5
2024/05/18 02:26:00.000   3655333.8698   1403901.0763   5018038.0816   1  10   0.0108   0.0061   0.0132   0.0060   0.0056   0.0101   0.00   12.8
2024/05/18 02:26:30.000   3655333.8634   1403901.0700   5018038.0774   1  10   0.0108   0.0065   0.0131   0.0057   0.0054   0.0102   0.00   13.0
2024/05/18 02:27:00.000   3655333.8751   1403901.0733   5018038.0886   1  10   0.0108   0.0063   0.0131   0.0058   0.0054   0.0102   0.00   13.2
2024/05/18 02:27:30.000   3655333.8778   1403901.0724   5018038.0902   1  10   0.0107   0.0065   0.0130   0.0060   0.0054   0.0100   0.00   13.4
2024/05/18 02:28:00.000   3655333.8740   1403901.0727   5018038.0780   1  10   0.0106   0.0060   0.0129   0.0061   0.0055   0.0100   0.00   13.5
2024/05/18 02:28:30.000   3655333.8684   1403901.0779   5018038.0753   1  10   0.0107   0.0065   0.0129   0.0059   0.0054   0.0100   0.00   13.7
2024/05/18 02:29:00.000   3655333.8800   1403901.0766   5018038.0866   1  10   0.0107   0.0063   0.0128   0.0059   0.0055   0.0099   0.00   13.9
2024/05/18 02:29:30.000   3655333.8739   1403901.0722   5018038.0757   1  10   0.0107   0.0063   0.0128   0.0060   0.0053   0.0099   0.00   14.3
2024/05/18 02:30:00.000   3655333.8761   1403901.0715   5018038.0806   1  10   0.0107   0.0062   0.0128   0.0061   0.0053   0.0099   0.00   14.6
2024/05/18 02:30:30.000   3655333.8847   1403901.0704   5018038.0906   1  10   0.0107   0.0064   0.0127   0.0060   0.0053   0.0098   0.00   15.0
2024/05/18 02:31:00.000   3655333.8751   1403901.0669   5018038.0823   1  10   0.0106   0.0062   0.0126   0.0060   0.0054   0.0098   0.00   15.4
2024/05/18 02:31:30.000   3655333.8724   1403901.0701   5018038.0778   1  10   0.0106   0.0062   0.0126   0.0061   0.0054   0.0097   0.00   15.9
2024/05/18 02:32:00.000   3655333.8740   1403901.0648   5018038.0804   1  10   0.0106   0.0064   0.0126   0.0061   0.0051   0.0097   0.00   16.5
2024/05/18 02:32:30.000   3655333.8723   1403901.0678   5018038.0779   1  10   0.0106   0.0063   0.0125   0.0062   0.0051   0.0097   0.00   16.9
2024/05/18 02:33:00.000   3655333.8711   1403901.0713   5018038.0910   1  10   0.0105   0.0062   0.0124   0.0062   0.0053   0.0096   0.00   17.0
2024/05/18 02:33:30.000   3655333.8714   1403901.0710   5018038.0853   1  10   0.0105   0.0061   0.0124   0.0063   0.0052   0.0095   0.00   17.0
2024/05/18 02:34:00.000   3655333.8696   1403901.0711   5018038.0839   1  10   0.0106   0.0064   0.0124   0.0061   0.0052   0.0096   0.00   17.0
2024/05/18 02:34:30.000   3655333.8755   1403901.0707   5018038.0826   1  10   0.0105   0.0065   0.0123   0.0062   0.0051   0.0095   0.00   17.2
2024/05/18 02:35:00.000   3655333.8791   1403901.0743   5018038.0907   1  10   0.0106   0.0067   0.0123   0.0060   0.0050   0.0095   0.00   17.1
2024/05/18 02:35:30.000   3655333.8698   1403901.0661   5018038.0784   1  10   0.0106   0.0066   0.0122   0.0060   0.0049   0.0095   0.00   17.1
2024/05/18 02:36:00.000   3655333.8687   1403901.0664   5018038.0712   1  10   0.0106   0.0066   0.0122   0.0061   0.0050   0.0094   0.00   17.1
2024/05/18 02:36:30.000   3655333.8743   1403901.0696   5018038.0769   1  10   0.0104   0.0065   0.0121   0.0062   0.0050   0.0094   0.00   17.3
2024/05/18 02:37:00.000   3655333.8687   1403901.0670   5018038.0767   1  10   0.0105   0.0066   0.0121   0.0061   0.0049   0.0093   0.00   17.5
2024/05/18 02:37:30.000   3655333.8598   1403901.0751   5018038.0662   1  10   0.0105   0.0065   0.0121   0.0062   0.0050   0.0093   0.00   17.3
2024/05/18 02:38:00.000   3655333.8649   1403901.0736   5018038.0714   1  10   0.0104   0.0066   0.0120   0.0062   0.0049   0.0093   0.00   17.3
2024/05/18 02:38:30.000   3655333.8549   1403901.0710   5018038.0632   1  10   0.0105   0.0067   0.0120   0.0061   0.0049   0.0092   0.00   17.2
2024/05/18 02:39:00.000   3655333.8537   1403901.0693   5018038.0613   1  10   0.0104   0.0066   0.0119   0.0063   0.0049   0.0092   0.00   17.4
2024/05/18 02:39:30.000   3655333.8559   1403901.0666   5018038.0598   1  10   0.0105   0.0067   0.0119   0.0062   0.0049   0.0091   0.00   17.6
2024/05/18 02:40:00.000   3655333.8603   1403901.0710   5018038.0591   1  10   0.0104   0.0067   0.0118   0.0062   0.0048   0.0091   0.00   17.6
2024/05/18 02:40:30.000   3655333.8674   1403901.0761   5018038.0595   1  10   0.0104   0.0066   0.0118   0.0064   0.0050   0.0090   0.00   17.7
2024/05/18 02:41:00.000   3655333.8569   1403901.0720   5018038.0546   1  10   0.0104   0.0068   0.0118   0.0063   0.0045   0.0091   0.00   17.8
2024/05/18 02:41:30.000   3655333.8565   1403901.0641   5018038.0625   1  10   0.0103   0.0068   0.0117   0.0063   0.0047   0.0090   0.00   17.7
2024/05/18 02:42:00.000   3655333.8629   1403901.0723   5018038.0550   1  10   0.0104   0.0070   0.0117   0.0061   0.0046   0.0090   0.00   17.6
2024/05/18 02:42:30.000   3655333.8522   1403901.0673   5018038.0559   1  10   0.0104   0.0067   0.0117   0.0064   0.0047   0.0090   0.00   17.7
2024/05/18 02:43:00.000   3655333.8518   1403901.0727   5018038.0578   1  10   0.0104   0.0069   0.0117   0.0063   0.0049   0.0088   0.00   17.6
2024/05/18 02:43:30.000   3655333.8520   1403901.0719   5018038.0553   1  10   0.0104   0.0070   0.0116   0.0063   0.0046   0.0088   0.00   17.6
2024/05/18 02:44:00.000   3655333.8429   1403901.0639   5018038.0493   1  10   0.0104   0.0069   0.0116   0.0064   0.0046   0.0088   0.00   17.5
2024/05/18 02:44:30.000   3655333.8427   1403901.0728   5018038.0457   1  10   0.0103   0.0069   0.0116   0.0064   0.0046   0.0088   0.00   17.5
2024/05/18 02:45:00.000   3655333.8506   1403901.0747   5018038.0582   1  10   0.0104   0.0069   0.0115   0.0066   0.0045   0.0088   0.00   17.2
2024/05/18 02:45:30.000   3655333.8499   1403901.0755   5018038.0507   1  10   0.0104   0.0071   0.0115   0.0064   0.0044   0.0087   0.00   17.1
2024/05/18 02:46:00.000   3655333.8463   1403901.0749   5018038.0540   1  10   0.0104   0.0069   0.0114   0.0064   0.0047   0.0087   0.00   17.0
2024/05/18 02:46:30.000   3655333.8446   1403901.0765   5018038.0573   1  10   0.0103   0.0069   0.0114   0.0067   0.0047   0.0086   0.00   16.9
2024/05/18 02:47:00.000   3655333.8393   1403901.0727   5018038.0561   1  10   0.0104   0.0072   0.0115   0.0064   0.0044   0.0086   0.00   16.9
2024/05/18 02:47:30.000   3655333.8250   1403901.0722   5018038.0483   1  10   0.0104   0.0072   0.0114   0.0065   0.0043   0.0086   0.00   17.2
2024/05/18 02:48:00.000   3655333.8188   1403901.0689   5018038.0426   1  10   0.0104   0.0072   0.0114   0.0065   0.0044   0.0085   0.00   17.5
2024/05/18 02:48:30.000   3655333.8304   1403901.0704   5018038.0437   1  10   0.0104   0.0072   0.0114   0.0066   0.0043   0.0085   0.00   17.9
2024/05/18 02:49:00.000   3655333.8353   1403901.0734   5018038.0539   1  10   0.0104   0.0073   0.0114   0.0065   0.0044   0.0085   0.00   18.2
2024/05/18 02:49:30.000   3655333.8427   1403901.0755   5018038.0525   1  10   0.0104   0.0074   0.0113   0.0066   0.0043   0.0085   0.00   18.4
2024/05/18 02:50:00.000   3655333.8480   1403901.0697   5018038.0586   1  10   0.0103   0.0072   0.0113   0.0068   0.0044   0.0084   0.00   18.4
2024/05/18 02:50:30.000   3655333.8601   1403901.0743   5018038.0692   1  10   0.0103   0.0072   0.0112   0.0068   0.0045   0.0084   0.00   18.3
2024/05/18 02:51:00.000   3655333.8632   1403901.0724   5018038.0676   1  10   0.0104   0.0074   0.0113   0.0066   0.0042   0.0083   0.00   18.2
2024/05/18 02:51:30.000   3655333.8935   1403901.0174   5018038.0840   2  10   0.0118   0.0084   0.0121   0.0067   0.0038   0.0095   0.00    1.3
2024/05/18 02:52:00.000   3655333.8812   1403901.0196   5018038.0728   2  10   0.0118   0.0084   0.0121   0.0068   0.0037   0.0095   0.00    1.2
2024/05/18 02:52:30.000   3655333.8701   1403901.0170   5018038.0664   2  10   0.0118   0.0084   0.0120   0.0069   0.0040   0.0095   0.00    1.2
2024/05/18 02:53:00.000   3655333.8603   1403901.0172   5018038.0570   2  10   0.0117   0.0084   0.0120   0.0068   0.0039   0.0094   0.00    1.2
2024/05/18 02:53:30.000   3655333.8623   1403901.0168   5018038.0574   2  10   0.0113   0.0084   0.0118   0.0067   0.0035   0.0089   0.00    1.5
2024/05/18 02:54:00.000   3655333.8655   1403901.0138   5018038.0518   2   9   0.0116   0.0091   0.0120   0.0075   0.0048   0.0092   0.00    1.8
2024/05/18 02:54:30.000   3655333.8708   1403901.0163   5018038.0620   2   9   0.0115   0.0091   0.0120   0.0075   0.0044   0.0091   0.00    2.1
2024/05/18 02:55:00.000   3655333.8675   1403901.0132   5018038.0579   2   9   0.0114   0.0090   0.0118   0.0076   0.0046   0.0090   0.00    2.4
2024/05/18 02:55:30.000   3655333.8364   1403901.0632   5018038.0404   1   9   0.0109   0.0083   0.0115   0.0076   0.0048   0.0085   0.00    2.7
2024/05/18 02:56:00.000   3655333.8468   1403901.0680   5018038.0485   1   9   0.0109   0.0083   0.0115   0.0076   0.0048   0.0085   0.00    2.9
2024/05/18 02:56:30.000   3655333.8463   1403901.0657   5018038.0459   1   9   0.0109   0.0084   0.0114   0.0077   0.0047   0.0084   0.00    2.9
2024/05/18 02:57:00.000   3655333.8618   1403901.0694   5018038.0524   1   9   0.0109   0.0085   0.0115   0.0076   0.0046   0.0084   0.00    2.8
2024/05/18 02:57:30.000   3655333.8573   1403901.0686   5018038.0459   1   9   0.0108   0.0085   0.0114   0.0077   0.0047   0.0084   0.00    2.8
2024/05/18 02:58:00.000   3655333.8359   1403901.0707   5018038.0325   1   8   0.0117   0.0086   0.0120   0.0080   0.0047   0.0091   0.00   22.1
2024/05/18 02:58:30.000   3655333.8747   1403901.0192   5018038.0679   2   8   0.0120   0.0096   0.0140   0.0079   0.0025   0.0094   0.00    1.3
2024/05/18 02:59:00.000   3655333.8433   1403901.0661   5018038.0492   1   7   0.0116   0.0088   0.0137   0.0080   0.0033   0.0091   0.00   13.3
2024/05/18 02:59:30.000   3655333.8658   1403901.0123   5018038.0600   2   8   0.0120   0.0097   0.0140   0.0079   0.0017   0.0093   0.00    1.2
2024/05/18 03:00:00.000   3655333.8616   1403901.0171   5018038.0491   2   8   0.0119   0.0097   0.0139   0.0079   0.0018   0.0092   0.00    1.2
2024/05/18 03:00:30.000   3655333.8680   1403901.0144   5018038.0448   2   8   0.0119   0.0097   0.0139   0.0079   0.0017   0.0092   0.00    1.2
2024/05/18 03:01:00.000   3655333.8684   1403901.0171   5018038.0637   2   8   0.0119   0.0097   0.0139   0.0079   0.0014   0.0091   0.00    1.2
2024/05/18 03:01:30.000   3655333.8463   1403901.0670   5018038.0473   1   7   0.0115   0.0091   0.0137   0.0080   0.0027   0.0087   0.00   13.2
2024/05/18 03:02:00.000   3655333.8857   1403901.0197   5018038.0691   2   8   0.0118   0.0098   0.0139   0.0080  -0.0004   0.0089   0.00    1.1
2024/05/18 03:02:30.000   3655333.8992   1403901.0269   5018038.0761   2   8   0.0112   0.0094   0.0139   0.0072  -0.0019   0.0087   0.00    1.3
2024/05/18 03:03:00.000   3655333.8891   1403901.0148   5018038.0782   2   8   0.0110   0.0092   0.0139   0.0070  -0.0019   0.0085   0.00    1.4
2024/05/18 03:03:30.000   3655333.8920   1403901.0225   5018038.0767   2   8   0.0109   0.0090   0.0138   0.0068  -0.0021   0.0084   0.00    1.6
2024/05/18 03:04:00.000   3655333.8915   1403901.0190   5018038.0752   2   9   0.0108   0.0091   0.0139   0.0067  -0.0024   0.0083   0.00    1.0
2024/05/18 03:04:30.000   3655333.8855   1403901.0224   5018038.0732   2   9   0.0106   0.0089   0.0130   0.0067  -0.0013   0.0082   0.00    1.0
2024/05/18 03:05:00.000   3655333.8741   1403901.0171   5018038.0718   2  10   0.0106   0.0090   0.0126   0.0066   0.0012   0.0081   0.00    1.0
2024/05/18 03:05:30.000   3655333.8756   1403901.0188   5018038.0694   2  10   0.0105   0.0089   0.0136   0.0063  -0.0033   0.0080   0.00    1.0
2024/05/18 03:06:00.000   3655333.8742   1403901.0202   5018038.0753   2   9   0.0104   0.0088   0.0136   0.0063  -0.0035   0.0078   0.00    1.4
2024/05/18 03:06:30.000   3655333.8725   1403901.0172   5018038.0759   2   9   0.0103   0.0089   0.0135   0.0063  -0.0037   0.0077   0.00    1.5
2024/05/18 03:07:00.000   3655333.8714   1403901.0177   5018038.0757   2   9   0.0102   0.0088   0.0135   0.0062  -0.0039   0.0076   0.00    1.7
2024/05/18 03:07:30.000   3655333.8715   1403901.0164   5018038.0719   2   9   0.0102   0.0087   0.0135   0.0062  -0.0040   0.0076   0.00    1.9
2024/05/18 03:08:00.000   3655333.8741   1403901.0045   5018038.0822   2  10   0.0101   0.0087   0.0135   0.0062  -0.0041   0.0075   0.00    1.1
2024/05/18 03:08:30.000   3655333.8817   1403901.0079   5018038.0816   2  10   0.0101   0.0087   0.0135   0.0062  -0.0041   0.0074   0.00    1.1
2024/05/18 03:09:00.000   3655333.8801   1403901.0112   5018038.0742   2   9   0.0101   0.0087   0.0134   0.0062  -0.0039   0.0074   0.00    2.3
2024/05/18 03:09:30.000   3655333.8831   1403901.0176   5018038.0687   2   9   0.0101   0.0088   0.0135   0.0060  -0.0041   0.0073   0.00    2.4
2024/05/18 03:10:00.000   3655333.8832   1403901.0127   5018038.0662   2  10   0.0099   0.0087   0.0135   0.0061  -0.0044   0.0073   0.00    1.1
2024/05/18 03:10:30.000   3655333.8797   1403901.0197   5018038.0635   2  10   0.0098   0.0086   0.0135   0.0060  -0.0045   0.0072   0.00    1.1
2024/05/18 03:11:00.000   3655333.8769   1403901.0231   5018038.0571   2  10   0.0098   0.0086   0.0135   0.0060  -0.0044   0.0072   0.00    1.1
2024/05/18 03:11:30.000   3655333.8378   1403901.0666   5018038.0338   1   9   0.0092   0.0078   0.0132   0.0060  -0.0041   0.0068   0.00    3.2
2024/05/18 03:12:00.000   3655333.8779   1403901.0205   5018038.0623   2  10   0.0098   0.0087   0.0135   0.0059  -0.0046   0.0071   0.00    1.1
2024/05/18 03:12:30.000   3655333.8464   1403901.0674   5018038.0511   1   9   0.0093   0.0077   0.0132   0.0059  -0.0043   0.0068   0.00    3.7
2024/05/18 03:13:00.000   3655333.8408   1403901.0735   5018038.0472   1   9   0.0092   0.0078   0.0133   0.0058  -0.0042   0.0067   0.00    4.0
2024/05/18 03:13:30.000   3655333.8314   1403901.0711   5018038.0385   1   9   0.0093   0.0078   0.0133   0.0057  -0.0043   0.0066   0.00    4.3
2024/05/18 03:14:00.000   3655333.8387   1403901.0687   5018038.0384   1   9   0.0091   0.0078   0.0133   0.0057  -0.0044   0.0066   0.00    4.6
2024/05/18 03:14:30.000   3655333.8420   1403901.0723   5018038.0294   1   9   0.0091   0.0077   0.0133   0.0058  -0.0044   0.0065   0.00    4.8
2024/05/18 03:15:00.000   3655333.8440   1403901.0670   5018038.0336   1   9   0.0092   0.0078   0.0134   0.0057  -0.0045   0.0065   0.00    5.1
2024/05/18 03:15:30.000   3655333.8372   1403901.0614   5018038.0372   1   9   0.0091   0.0078   0.0134   0.0057  -0.0045   0.0064   0.00    5.3
2024/05/18 03:16:00.000   3655333.8307   1403901.0556   5018038.0390   1   9   0.0090   0.0078   0.0134   0.0057  -0.0045   0.0064   0.00    5.6
2024/05/18 03:16:30.000   3655333.8343   1403901.0561   5018038.0388   1   9   0.0091   0.0079   0.0134   0.0056  -0.0047   0.0064   0.00    5.8
2024/05/18 03:17:00.000   3655333.8358   1403901.0496   5018038.0457   1   9   0.0090   0.0078   0.0135   0.0056  -0.0047   0.0064   0.00    6.1
2024/05/18 03:17:30.000   3655333.8416   1403901.0562   5018038.0400   1   9   0.0089   0.0077   0.0135   0.0057  -0.0048   0.0063   0.00    6.3
2024/05/18 03:18:00.000   3655333.8812   1403901.0167   5018038.0743   2  10   0.0094   0.0086   0.0138   0.0056  -0.0051   0.0066   0.00    1.1
2024/05/18 03:18:30.000   3655333.8746   1403901.0137   5018038.0685   2  10   0.0094   0.0084   0.0133   0.0057  -0.0047   0.0063   0.00    1.3
2024/05/18 03:19:00.000   3655333.8719   1403901.0116   5018038.0689   2  10   0.0093   0.0084   0.0131   0.0058  -0.0044   0.0063   0.00    1.4
2024/05/18 03:19:30.000   3655333.8725   1403901.0142   5018038.0622   2  10   0.0093   0.0083   0.0130   0.0058  -0.0043   0.0061   0.00    1.6
2024/05/18 03:20:00.000   3655333.8673   1403901.0170   5018038.0546   2  10   0.0094   0.0083   0.0130   0.0057  -0.0043   0.0061   0.00    1.7
2024/05/18 03:20:30.000   3655333.8658   1403901.0140   5018038.0513   2  10   0.0093   0.0082   0.0129   0.0058  -0.0043   0.0061   0.00    1.8
2024/05/18 03:21:00.000   3655333.8644   1403901.0158   5018038.0501   2  10   0.0094   0.0083   0.0129   0.0057  -0.0041   0.0060   0.00    2.0
2024/05/18 03:21:30.000   3655333.8666   1403901.0163   5018038.0479   2  10   0.0092   0.0082   0.0129   0.0056  -0.0042   0.0060   0.00    2.1
2024/05/18 03:22:00.000   3655333.8695   1403901.0144   5018038.0617   2  10   0.0092   0.0082   0.0129   0.0057  -0.0042   0.0060   0.00    2.3
2024/05/18 03:22:30.000   3655333.8656   1403901.0192   5018038.0532   2  10   0.0093   0.0082   0.0129   0.0057  -0.0041   0.0060   0.00    2.4
